[{
  "_id": {
    "$oid": "60acc503259febe16d36bb2f"
  },
  "type": "Feature",
  "geometry": {
    "type": "Point",
    "coordinates": [
      35.23417,
      31.77667
    ]
  },
  "properties": {
    "placename": "القدس",
    "hebrewname": "אלקדס",
    "englishname": "alqds",
    "Description": "",
    "count": 6,
    "Relation": {
      "Type_Arabic": "-",
      "Type_English": "-",
      "Metropolitan": "-",
      "District": "-",
      "Province": "-"
    }
  }
},{
  "_id": {
    "$oid": "60acc503259febe16d36bb31"
  },
  "type": "Feature",
  "geometry": {
    "type": "Point",
    "coordinates": [
      68.23801,
      32.68567
    ]
  },
  "properties": {
    "placename": "آمد",
    "hebrewname": "אמד",
    "englishname": "aamd",
    "Description": "",
    "count": 17,
    "Relation": {
      "Type_Arabic": "بلد",
      "Type_English": "town",
      "Metropolitan": "حمل",
      "District": "-",
      "Province": "-"
    }
  }
},{
  "_id": {
    "$oid": "60acc503259febe16d36bb3c"
  },
  "type": "Feature",
  "geometry": {
    "type": "Point",
    "coordinates": [
      44.58228303650514,
      33.0981310250246
    ]
  },
  "properties": {
    "placename": "المدائن",
    "hebrewname": "אלמדאאנ",
    "englishname": "almdaan",
    "Description": "",
    "count": 14,
    "Relation": {
      "Type_Arabic": "قريتين",
      "Type_English": "neighboring villages",
      "Metropolitan": "الساباط",
      "District": "حلب",
      "Province": "الكوفة"
    }
  }
},{
  "_id": {
    "$oid": "60acc503259febe16d36bb55"
  },
  "type": "Feature",
  "geometry": {
    "type": "Point",
    "coordinates": [
      38.77255871082085,
      35.62182703388005
    ]
  },
  "properties": {
    "placename": "الرصافة",
    "hebrewname": "אלרצאפה",
    "englishname": "alrSafah",
    "Description": "",
    "count": 6,
    "Relation": {
      "Type_Arabic": "ما",
      "Type_English": "water",
      "Metropolitan": "تدمر",
      "District": "-",
      "Province": "-"
    }
  }
},{
  "_id": {
    "$oid": "60acc503259febe16d36bb62"
  },
  "type": "Feature",
  "geometry": {
    "type": "Point",
    "coordinates": [
      58.87033297,
      35.48693989
    ]
  },
  "properties": {
    "placename": "خراسان",
    "hebrewname": "חראסאנ",
    "englishname": "xrasan",
    "Description": "",
    "count": 90,
    "Relation": {
      "Type_Arabic": "ما",
      "Type_English": "water",
      "Metropolitan": "الدار",
      "District": "السواد",
      "Province": "ما وراء النهر"
    }
  }
},{
  "_id": {
    "$oid": "60acc503259febe16d36bb70"
  },
  "type": "Feature",
  "geometry": {
    "type": "Point",
    "coordinates": [
      44.73548651466688,
      35.59381725005857
    ]
  },
  "properties": {
    "placename": "شهرزور",
    "hebrewname": "שהרזור",
    "englishname": "shhrzor",
    "Description": "",
    "count": 8,
    "Relation": {
      "Type_Arabic": "كورة",
      "Type_English": "town",
      "Metropolitan": "السلق",
      "District": "-",
      "Province": "-"
    }
  }
},{
  "_id": {
    "$oid": "60acc503259febe16d36bb80"
  },
  "type": "Feature",
  "geometry": {
    "type": "Point",
    "coordinates": [
      46.714795076873195,
      24.594768169553937
    ]
  },
  "properties": {
    "placename": "اليمامة",
    "hebrewname": "אלימאמה",
    "englishname": "alymamah",
    "Description": "",
    "count": 7,
    "Relation": {
      "Type_Arabic": "رمل",
      "Type_English": "sand (desert)",
      "Metropolitan": "الدام",
      "District": "اليمامة",
      "Province": "الوشم"
    }
  }
},{
  "_id": {
    "$oid": "60acc503259febe16d36bb8b"
  },
  "type": "Feature",
  "geometry": {
    "type": "Point",
    "coordinates": [
      57.436251236257405,
      23.443233953762185
    ]
  },
  "properties": {
    "placename": "الرستاق",
    "hebrewname": "לרסתאק",
    "englishname": "lrstaq",
    "Description": "",
    "count": 1,
    "Relation": {
      "Type_Arabic": "-",
      "Type_English": "-",
      "Metropolitan": "-",
      "District": "-",
      "Province": "-"
    }
  }
},{
  "_id": {
    "$oid": "60acc503259febe16d36bb8e"
  },
  "type": "Feature",
  "geometry": {
    "type": "Point",
    "coordinates": [
      47.43362,
      31.01547
    ]
  },
  "properties": {
    "placename": "القرنة",
    "hebrewname": "אלקרנה",
    "englishname": "alqrnah",
    "Description": "",
    "count": 1,
    "Relation": {
      "Type_Arabic": "-",
      "Type_English": "-",
      "Metropolitan": "-",
      "District": "-",
      "Province": "-"
    }
  }
},{
  "_id": {
    "$oid": "60acc503259febe16d36bb8f"
  },
  "type": "Feature",
  "geometry": {
    "type": "Point",
    "coordinates": [
      53.93126011751853,
      32.79138456344915
    ]
  },
  "properties": {
    "placename": "سياه",
    "hebrewname": "סיאה",
    "englishname": "syah",
    "Description": "",
    "count": 3,
    "Relation": {
      "Type_Arabic": "-",
      "Type_English": "-",
      "Metropolitan": "-",
      "District": "-",
      "Province": "-"
    }
  }
},{
  "_id": {
    "$oid": "60acc503259febe16d36bb90"
  },
  "type": "Feature",
  "geometry": {
    "type": "Point",
    "coordinates": [
      35.64593464549529,
      33.39333744453697
    ]
  },
  "properties": {
    "placename": "كوكبا",
    "hebrewname": "כוכבא",
    "englishname": "kokba",
    "Description": "",
    "count": 1,
    "Relation": {
      "Type_Arabic": "-",
      "Type_English": "-",
      "Metropolitan": "-",
      "District": "-",
      "Province": "-"
    }
  }
},{
  "_id": {
    "$oid": "60acc503259febe16d36bb9a"
  },
  "type": "Feature",
  "geometry": {
    "type": "Point",
    "coordinates": [
      31.17858,
      30.45906
    ]
  },
  "properties": {
    "placename": "بنها",
    "hebrewname": "בנהא",
    "englishname": "bnha",
    "Description": "",
    "count": 4,
    "Relation": {
      "Type_Arabic": "قرية",
      "Type_English": "village",
      "Metropolitan": "شعبة",
      "District": "النيل",
      "Province": "مصر"
    }
  }
},{
  "_id": {
    "$oid": "60acc503259febe16d36bbc0"
  },
  "type": "Feature",
  "geometry": {
    "type": "Point",
    "coordinates": [
      29.914007207487497,
      31.256202484408053
    ]
  },
  "properties": {
    "placename": "إسكندرية",
    "hebrewname": "איסכנדריה",
    "englishname": "Askndryah",
    "Description": "",
    "count": 2,
    "Relation": {
      "Type_Arabic": "-",
      "Type_English": "-",
      "Metropolitan": "-",
      "District": "-",
      "Province": "-"
    }
  }
},{
  "_id": {
    "$oid": "60acc503259febe16d36bbc4"
  },
  "type": "Feature",
  "geometry": {
    "type": "Point",
    "coordinates": [
      55.842359905304534,
      25.549362801134283
    ]
  },
  "properties": {
    "placename": "الحيرة",
    "hebrewname": "אלחירה",
    "englishname": "alHyrah",
    "Description": "",
    "count": 8,
    "Relation": {
      "Type_Arabic": "ما",
      "Type_English": "water",
      "Metropolitan": "دارا",
      "District": "الموصل",
      "Province": "اليمن"
    }
  }
},{
  "_id": {
    "$oid": "60acc503259febe16d36bbec"
  },
  "type": "Feature",
  "geometry": {
    "type": "Point",
    "coordinates": [
      59.50875521021797,
      36.48114679948287
    ]
  },
  "properties": {
    "placename": "طوس",
    "hebrewname": "טוס",
    "englishname": "Tos",
    "Description": "",
    "count": 17,
    "Relation": {
      "Type_Arabic": "مدينة",
      "Type_English": "city",
      "Metropolitan": "الخرج",
      "District": "-",
      "Province": "خراسان"
    }
  }
},{
  "_id": {
    "$oid": "60acc503259febe16d36bbff"
  },
  "type": "Feature",
  "geometry": {
    "type": "Point",
    "coordinates": [
      38.953356744822536,
      23.428007630763904
    ]
  },
  "properties": {
    "placename": "الجابية",
    "hebrewname": "אלגאביה",
    "englishname": "aljabyah",
    "Description": "",
    "count": 1,
    "Relation": {
      "Type_Arabic": "قرية",
      "Type_English": "village",
      "Metropolitan": "الجيدور",
      "District": "دمشق",
      "Province": "الشام"
    }
  }
},{
  "_id": {
    "$oid": "60acc503259febe16d36bc1c"
  },
  "type": "Feature",
  "geometry": {
    "type": "Point",
    "coordinates": [
      32.28815767,
      13.44291963
    ]
  },
  "properties": {
    "placename": "النيل",
    "hebrewname": "אלניל",
    "englishname": "alnyl",
    "Description": "",
    "count": 49,
    "Relation": {
      "Type_Arabic": "بليدة",
      "Type_English": "small town",
      "Metropolitan": "المقام",
      "District": "الصعيد",
      "Province": "مصر"
    }
  }
},{
  "_id": {
    "$oid": "60acc503259febe16d36bc28"
  },
  "type": "Feature",
  "geometry": {
    "type": "Point",
    "coordinates": [
      34.46667,
      31.5
    ]
  },
  "properties": {
    "placename": "غزة",
    "hebrewname": "עזה",
    "englishname": "gzah",
    "Description": "",
    "count": 16,
    "Relation": {
      "Type_Arabic": "مدينة",
      "Type_English": "city",
      "Metropolitan": "فطرس",
      "District": "فلسطين",
      "Province": "إفريقية"
    }
  }
},{
  "_id": {
    "$oid": "60acc503259febe16d36bc2d"
  },
  "type": "Feature",
  "geometry": {
    "type": "Point",
    "coordinates": [
      35.60408994304942,
      33.13143328832738
    ]
  },
  "properties": {
    "placename": "الحولة",
    "hebrewname": "אלחולה",
    "englishname": "alHolah",
    "Description": "",
    "count": 4,
    "Relation": {
      "Type_Arabic": "ناحية",
      "Type_English": "district",
      "Metropolitan": "بارين",
      "District": "حمص",
      "Province": "الشام"
    }
  }
},{
  "_id": {
    "$oid": "60acc503259febe16d36bc32"
  },
  "type": "Feature",
  "geometry": {
    "type": "Point",
    "coordinates": [
      10.59434,
      35.89239
    ]
  },
  "properties": {
    "placename": "مرسى",
    "hebrewname": "מרסא",
    "englishname": "mrsa",
    "Description": "",
    "count": 19,
    "Relation": {
      "Type_Arabic": "-",
      "Type_English": "-",
      "Metropolitan": "-",
      "District": "-",
      "Province": "-"
    }
  }
},{
  "_id": {
    "$oid": "60acc503259febe16d36bc39"
  },
  "type": "Feature",
  "geometry": {
    "type": "Point",
    "coordinates": [
      41.00817,
      38.13708
    ]
  },
  "properties": {
    "placename": "ميافارقين",
    "hebrewname": "מיאפארקינ",
    "englishname": "myafarqyn",
    "Description": "",
    "count": 11,
    "Relation": {
      "Type_Arabic": "ما",
      "Type_English": "water",
      "Metropolitan": "ملك",
      "District": "دجلة",
      "Province": "-"
    }
  }
},{
  "_id": {
    "$oid": "60acc503259febe16d36bc3d"
  },
  "type": "Feature",
  "geometry": {
    "type": "Point",
    "coordinates": [
      10.164260186842426,
      36.79418214156499
    ]
  },
  "properties": {
    "placename": "الزيتونة",
    "hebrewname": "אלזיתונה",
    "englishname": "alzytonah",
    "Description": "",
    "count": 6,
    "Relation": {
      "Type_Arabic": "موضع",
      "Type_English": "place",
      "Metropolitan": "-",
      "District": "-",
      "Province": "-"
    }
  }
},{
  "_id": {
    "$oid": "60acc503259febe16d36bc6d"
  },
  "type": "Feature",
  "geometry": {
    "type": "Point",
    "coordinates": [
      -3.525723208,
      17.35478933
    ]
  },
  "properties": {
    "placename": "مالي",
    "hebrewname": "מאלי",
    "englishname": "maly",
    "Description": "",
    "count": 1,
    "Relation": {
      "Type_Arabic": "-",
      "Type_English": "-",
      "Metropolitan": "-",
      "District": "-",
      "Province": "-"
    }
  }
},{
  "_id": {
    "$oid": "60acc503259febe16d36bc8b"
  },
  "type": "Feature",
  "geometry": {
    "type": "Point",
    "coordinates": [
      43.348246023022256,
      38.50443161034372
    ]
  },
  "properties": {
    "placename": "بوان",
    "hebrewname": "בואנ",
    "englishname": "boan",
    "Description": "",
    "count": 5,
    "Relation": {
      "Type_Arabic": "موضع",
      "Type_English": "place",
      "Metropolitan": "-",
      "District": "-",
      "Province": "-"
    }
  }
},{
  "_id": {
    "$oid": "60acc503259febe16d36bc90"
  },
  "type": "Feature",
  "geometry": {
    "type": "Point",
    "coordinates": [
      35.36378,
      32.08357
    ]
  },
  "properties": {
    "placename": "مجدل",
    "hebrewname": "מגדל",
    "englishname": "mjdl",
    "Description": "",
    "count": 4,
    "Relation": {
      "Type_Arabic": "قصر",
      "Type_English": "palace",
      "Metropolitan": "الخياط",
      "District": "-",
      "Province": "-"
    }
  }
},{
  "_id": {
    "$oid": "60acc503259febe16d36bc98"
  },
  "type": "Feature",
  "geometry": {
    "type": "Point",
    "coordinates": [
      34.57409483003408,
      31.66757416573755
    ]
  },
  "properties": {
    "placename": "عسقلان",
    "hebrewname": "עסקלאנ",
    "englishname": "Csqlan",
    "Description": "",
    "count": 12,
    "Relation": {
      "Type_Arabic": "مدينة",
      "Type_English": "city",
      "Metropolitan": "عكا",
      "District": "فلسطين",
      "Province": "الشام"
    }
  }
},{
  "_id": {
    "$oid": "60acc503259febe16d36bca4"
  },
  "type": "Feature",
  "geometry": {
    "type": "Point",
    "coordinates": [
      37.32396,
      34.83444
    ]
  },
  "properties": {
    "placename": "جب",
    "hebrewname": "גב",
    "englishname": "jb",
    "Description": "",
    "count": 25,
    "Relation": {
      "Type_Arabic": "-",
      "Type_English": "-",
      "Metropolitan": "-",
      "District": "-",
      "Province": "-"
    }
  }
},{
  "_id": {
    "$oid": "60acc503259febe16d36bcad"
  },
  "type": "Feature",
  "geometry": {
    "type": "Point",
    "coordinates": [
      64.4009965666651,
      39.77832259921541
    ]
  },
  "properties": {
    "placename": "بخارا",
    "hebrewname": "בחארא",
    "englishname": "bxara",
    "Description": "",
    "count": 87,
    "Relation": {
      "Type_Arabic": "-",
      "Type_English": "-",
      "Metropolitan": "شوال",
      "District": "نسف",
      "Province": "-"
    }
  }
},{
  "_id": {
    "$oid": "60acc503259febe16d36bcb1"
  },
  "type": "Feature",
  "geometry": {
    "type": "Point",
    "coordinates": [
      50.0041,
      36.26877
    ]
  },
  "properties": {
    "placename": "قزوين",
    "hebrewname": "קזוינ",
    "englishname": "qzoyn",
    "Description": "",
    "count": 7,
    "Relation": {
      "Type_Arabic": "مدينة",
      "Type_English": "city",
      "Metropolitan": "زنجان",
      "District": "اللوح",
      "Province": "-"
    }
  }
},{
  "_id": {
    "$oid": "60acc503259febe16d36bcb6"
  },
  "type": "Feature",
  "geometry": {
    "type": "Point",
    "coordinates": [
      31.379119647360763,
      26.96433090492068
    ]
  },
  "properties": {
    "placename": "صدفا",
    "hebrewname": "צדפא",
    "englishname": "Sdfa",
    "Description": "",
    "count": 1,
    "Relation": {
      "Type_Arabic": "-",
      "Type_English": "-",
      "Metropolitan": "-",
      "District": "-",
      "Province": "-"
    }
  }
},{
  "_id": {
    "$oid": "60acc503259febe16d36bb2c"
  },
  "type": "Feature",
  "geometry": {
    "type": "Point",
    "coordinates": [
      54.32460231209634,
      29.19325786310132
    ]
  },
  "properties": {
    "placename": "نيريز",
    "hebrewname": "ניריז",
    "englishname": "nyryz",
    "Description": "",
    "count": 11,
    "Relation": {
      "Type_Arabic": "بلد",
      "Type_English": "town",
      "Metropolitan": "شيراز",
      "District": "-",
      "Province": "فارس"
    }
  }
},{
  "_id": {
    "$oid": "60acc503259febe16d36bb3a"
  },
  "type": "Feature",
  "geometry": {
    "type": "Point",
    "coordinates": [
      -9.637714002385826,
      30.001648919660486
    ]
  },
  "properties": {
    "placename": "ماسة",
    "hebrewname": "מאסה",
    "englishname": "masah",
    "Description": "",
    "count": 3,
    "Relation": {
      "Type_Arabic": "-",
      "Type_English": "-",
      "Metropolitan": "-",
      "District": "-",
      "Province": "-"
    }
  }
},{
  "_id": {
    "$oid": "60acc503259febe16d36bb3e"
  },
  "type": "Feature",
  "geometry": {
    "type": "Point",
    "coordinates": [
      46.16931425782983,
      33.11872597243505
    ]
  },
  "properties": {
    "placename": "مهران",
    "hebrewname": "מהראנ",
    "englishname": "mhran",
    "Description": "",
    "count": 4,
    "Relation": {
      "Type_Arabic": "واد",
      "Type_English": "valley",
      "Metropolitan": "ملتان",
      "District": "حد سمندور",
      "Province": "مصر"
    }
  }
},{
  "_id": {
    "$oid": "60acc503259febe16d36bb46"
  },
  "type": "Feature",
  "geometry": {
    "type": "Point",
    "coordinates": [
      56.70765,
      24.35022
    ]
  },
  "properties": {
    "placename": "صحار",
    "hebrewname": "צחאר",
    "englishname": "SHar",
    "Description": "",
    "count": 7,
    "Relation": {
      "Type_Arabic": "ما",
      "Type_English": "water",
      "Metropolitan": "-",
      "District": "-",
      "Province": "عمان"
    }
  }
},{
  "_id": {
    "$oid": "60acc503259febe16d36bb58"
  },
  "type": "Feature",
  "geometry": {
    "type": "Point",
    "coordinates": [
      43.31518,
      14.1951
    ]
  },
  "properties": {
    "placename": "زبيد",
    "hebrewname": "זביד",
    "englishname": "zbyd",
    "Description": "",
    "count": 17,
    "Relation": {
      "Type_Arabic": "واد",
      "Type_English": "valley",
      "Metropolitan": "جبل وصاب",
      "District": "تهامة",
      "Province": "اليمن"
    }
  }
},{
  "_id": {
    "$oid": "60acc503259febe16d36bb5c"
  },
  "type": "Feature",
  "geometry": {
    "type": "Point",
    "coordinates": [
      4.54194,
      35.70583
    ]
  },
  "properties": {
    "placename": "المسيلة",
    "hebrewname": "אלמסילה",
    "englishname": "almsylah",
    "Description": "",
    "count": 12,
    "Relation": {
      "Type_Arabic": "مدينة",
      "Type_English": "city",
      "Metropolitan": "-",
      "District": "-",
      "Province": "المغرب"
    }
  }
},{
  "_id": {
    "$oid": "60acc503259febe16d36bb5d"
  },
  "type": "Feature",
  "geometry": {
    "type": "Point",
    "coordinates": [
      32.85427,
      39.91987
    ]
  },
  "properties": {
    "placename": "أنقرة",
    "hebrewname": "אנקרה",
    "englishname": "Anqrah",
    "Description": "",
    "count": 3,
    "Relation": {
      "Type_Arabic": "مدينة",
      "Type_English": "city",
      "Metropolitan": "حيرة",
      "District": "-",
      "Province": "الروم"
    }
  }
},{
  "_id": {
    "$oid": "60acc503259febe16d36bb5f"
  },
  "type": "Feature",
  "geometry": {
    "type": "Point",
    "coordinates": [
      47.53113714,
      40.28705839
    ]
  },
  "properties": {
    "placename": "أذربيجان",
    "hebrewname": "אדרביגאנ",
    "englishname": "AVrbyjan",
    "Description": "",
    "count": 4,
    "Relation": {
      "Type_Arabic": "إقليم",
      "Type_English": "islamic longitude",
      "Metropolitan": "شهرزور",
      "District": "-",
      "Province": "أرمن"
    }
  }
},{
  "_id": {
    "$oid": "60acc503259febe16d36bba2"
  },
  "type": "Feature",
  "geometry": {
    "type": "Point",
    "coordinates": [
      61.4469,
      32.14237
    ]
  },
  "properties": {
    "placename": "قلعه",
    "hebrewname": "קלעה",
    "englishname": "qlCh",
    "Description": "",
    "count": 2,
    "Relation": {
      "Type_Arabic": "-",
      "Type_English": "-",
      "Metropolitan": "-",
      "District": "-",
      "Province": "-"
    }
  }
},{
  "_id": {
    "$oid": "60acc503259febe16d36bbc7"
  },
  "type": "Feature",
  "geometry": {
    "type": "Point",
    "coordinates": [
      44.40469386,
      15.32935876
    ]
  },
  "properties": {
    "placename": "صنعاء",
    "hebrewname": "צנעאא",
    "englishname": "SnCaa",
    "Description": "",
    "count": 40,
    "Relation": {
      "Type_Arabic": "بلد",
      "Type_English": "town",
      "Metropolitan": "جبل نقم",
      "District": "مكة",
      "Province": "اليمن"
    }
  }
},{
  "_id": {
    "$oid": "60acc503259febe16d36bbca"
  },
  "type": "Feature",
  "geometry": {
    "type": "Point",
    "coordinates": [
      7.147509023002716,
      35.434108122055534
    ]
  },
  "properties": {
    "placename": "تقيوس",
    "hebrewname": "תקיוס",
    "englishname": "tqyos",
    "Description": "",
    "count": 3,
    "Relation": {
      "Type_Arabic": "مدينة",
      "Type_English": "city",
      "Metropolitan": "توزر",
      "District": "-",
      "Province": "إفريقية"
    }
  }
},{
  "_id": {
    "$oid": "60acc503259febe16d36bbe0"
  },
  "type": "Feature",
  "geometry": {
    "type": "Point",
    "coordinates": [
      57.437706040079114,
      23.839296441750125
    ]
  },
  "properties": {
    "placename": "السويق",
    "hebrewname": "אלסויק",
    "englishname": "alsoyq",
    "Description": "",
    "count": 1,
    "Relation": {
      "Type_Arabic": "-",
      "Type_English": "-",
      "Metropolitan": "-",
      "District": "-",
      "Province": "-"
    }
  }
},{
  "_id": {
    "$oid": "60acc503259febe16d36bbe6"
  },
  "type": "Feature",
  "geometry": {
    "type": "Point",
    "coordinates": [
      35.20422,
      31.89964
    ]
  },
  "properties": {
    "placename": "الله",
    "hebrewname": "אללה",
    "englishname": "allh",
    "Description": "",
    "count": 314,
    "Relation": {
      "Type_Arabic": "-",
      "Type_English": "-",
      "Metropolitan": "-",
      "District": "-",
      "Province": "-"
    }
  }
},{
  "_id": {
    "$oid": "60acc503259febe16d36bbe8"
  },
  "type": "Feature",
  "geometry": {
    "type": "Point",
    "coordinates": [
      47.04478712,
      31.88851957
    ]
  },
  "properties": {
    "placename": "ميسان",
    "hebrewname": "מיסאנ",
    "englishname": "mysan",
    "Description": "",
    "count": 2,
    "Relation": {
      "Type_Arabic": "كورة",
      "Type_English": "town",
      "Metropolitan": "ظبي",
      "District": "-",
      "Province": "-"
    }
  }
},{
  "_id": {
    "$oid": "60acc503259febe16d36bbe9"
  },
  "type": "Feature",
  "geometry": {
    "type": "Point",
    "coordinates": [
      53.19642052077156,
      29.277437942909025
    ]
  },
  "properties": {
    "placename": "بيز",
    "hebrewname": "ביז",
    "englishname": "byz",
    "Description": "",
    "count": 1,
    "Relation": {
      "Type_Arabic": "-",
      "Type_English": "-",
      "Metropolitan": "-",
      "District": "-",
      "Province": "-"
    }
  }
},{
  "_id": {
    "$oid": "60acc503259febe16d36bbf0"
  },
  "type": "Feature",
  "geometry": {
    "type": "Point",
    "coordinates": [
      47.95207904963696,
      36.070781010965796
    ]
  },
  "properties": {
    "placename": "شيرين",
    "hebrewname": "שירינ",
    "englishname": "shyryn",
    "Description": "",
    "count": 6,
    "Relation": {
      "Type_Arabic": "قصر",
      "Type_English": "palace",
      "Metropolitan": "-",
      "District": "-",
      "Province": "-"
    }
  }
},{
  "_id": {
    "$oid": "60acc503259febe16d36bc13"
  },
  "type": "Feature",
  "geometry": {
    "type": "Point",
    "coordinates": [
      47.97813,
      30.44636
    ]
  },
  "properties": {
    "placename": "الخصيب",
    "hebrewname": "אלחציב",
    "englishname": "alxSyb",
    "Description": "",
    "count": 2,
    "Relation": {
      "Type_Arabic": "-",
      "Type_English": "-",
      "Metropolitan": "-",
      "District": "-",
      "Province": "-"
    }
  }
},{
  "_id": {
    "$oid": "60acc503259febe16d36bc17"
  },
  "type": "Feature",
  "geometry": {
    "type": "Point",
    "coordinates": [
      43.75705358999407,
      26.412318365004698
    ]
  },
  "properties": {
    "placename": "القرعاء",
    "hebrewname": "אלקרעאא",
    "englishname": "alqrCaa",
    "Description": "",
    "count": 1,
    "Relation": {
      "Type_Arabic": "منزل",
      "Type_English": "small abodes",
      "Metropolitan": "المغيثة",
      "District": "مكة",
      "Province": "الكوفة"
    }
  }
},{
  "_id": {
    "$oid": "60acc503259febe16d36bc37"
  },
  "type": "Feature",
  "geometry": {
    "type": "Point",
    "coordinates": [
      38.29824515,
      34.33814673
    ]
  },
  "properties": {
    "placename": "حمص",
    "hebrewname": "חמצ",
    "englishname": "HmS",
    "Description": "",
    "count": 23,
    "Relation": {
      "Type_Arabic": "طريق",
      "Type_English": "road",
      "Metropolitan": "قبلة",
      "District": "-",
      "Province": "الشام"
    }
  }
},{
  "_id": {
    "$oid": "60acc503259febe16d36bc38"
  },
  "type": "Feature",
  "geometry": {
    "type": "Point",
    "coordinates": [
      47.22061164664889,
      40.20952307560872
    ]
  },
  "properties": {
    "placename": "باجروان",
    "hebrewname": "באגרואנ",
    "englishname": "bajroan",
    "Description": "",
    "count": 7,
    "Relation": {
      "Type_Arabic": "قرية",
      "Type_English": "village",
      "Metropolitan": "ديار مضر",
      "District": "-",
      "Province": "-"
    }
  }
},{
  "_id": {
    "$oid": "60acc503259febe16d36bc3a"
  },
  "type": "Feature",
  "geometry": {
    "type": "Point",
    "coordinates": [
      36.02504448,
      35.56810815
    ]
  },
  "properties": {
    "placename": "اللاذقية",
    "hebrewname": "אללאדקיה",
    "englishname": "allaVqyah",
    "Description": "",
    "count": 4,
    "Relation": {
      "Type_Arabic": "بلد",
      "Type_English": "town",
      "Metropolitan": "بحر شام",
      "District": "حمص",
      "Province": "-"
    }
  }
},{
  "_id": {
    "$oid": "60acc503259febe16d36bc3f"
  },
  "type": "Feature",
  "geometry": {
    "type": "Point",
    "coordinates": [
      31.306920502143264,
      30.009427418988096
    ]
  },
  "properties": {
    "placename": "المقطم",
    "hebrewname": "אלמקטמ",
    "englishname": "almqTm",
    "Description": "",
    "count": 2,
    "Relation": {
      "Type_Arabic": "جبل",
      "Type_English": "mountain",
      "Metropolitan": "الأكناف",
      "District": "الصعيد",
      "Province": "البيداء"
    }
  }
},{
  "_id": {
    "$oid": "60acc503259febe16d36bc52"
  },
  "type": "Feature",
  "geometry": {
    "type": "Point",
    "coordinates": [
      62.18030342,
      37.66844146
    ]
  },
  "properties": {
    "placename": "مرو",
    "hebrewname": "מרו",
    "englishname": "mro",
    "Description": "",
    "count": 46,
    "Relation": {
      "Type_Arabic": "-",
      "Type_English": "-",
      "Metropolitan": "صفر",
      "District": "الحجاز",
      "Province": "الكوفة"
    }
  }
},{
  "_id": {
    "$oid": "60acc503259febe16d36bc89"
  },
  "type": "Feature",
  "geometry": {
    "type": "Point",
    "coordinates": [
      66.8972,
      36.75635
    ]
  },
  "properties": {
    "placename": "بلخ",
    "hebrewname": "בלח",
    "englishname": "blx",
    "Description": "",
    "count": 40,
    "Relation": {
      "Type_Arabic": "مدينة",
      "Type_English": "city",
      "Metropolitan": "سعد",
      "District": "سمرقند",
      "Province": "خراسان"
    }
  }
},{
  "_id": {
    "$oid": "60acc503259febe16d36bca1"
  },
  "type": "Feature",
  "geometry": {
    "type": "Point",
    "coordinates": [
      9.756251674489581,
      33.48838450255601
    ]
  },
  "properties": {
    "placename": "مطماطة",
    "hebrewname": "מטמאטה",
    "englishname": "mTmaTah",
    "Description": "",
    "count": 6,
    "Relation": {
      "Type_Arabic": "-",
      "Type_English": "-",
      "Metropolitan": "-",
      "District": "-",
      "Province": "-"
    }
  }
},{
  "_id": {
    "$oid": "60acc503259febe16d36bcbb"
  },
  "type": "Feature",
  "geometry": {
    "type": "Point",
    "coordinates": [
      44.297130245335175,
      33.824011093686764
    ]
  },
  "properties": {
    "placename": "عكبرا",
    "hebrewname": "עכברא",
    "englishname": "Ckbra",
    "Description": "",
    "count": 1,
    "Relation": {
      "Type_Arabic": "بليدة",
      "Type_English": "small town",
      "Metropolitan": "دجيل",
      "District": "السواد",
      "Province": "العراق"
    }
  }
},{
  "_id": {
    "$oid": "60acc503259febe16d36bb1f"
  },
  "type": "Feature",
  "geometry": {
    "type": "Point",
    "coordinates": [
      39.86850782496402,
      21.389291889336448
    ]
  },
  "properties": {
    "placename": "مكة",
    "hebrewname": "מכה",
    "englishname": "mkah",
    "Description": "",
    "count": 59,
    "Relation": {
      "Type_Arabic": "مدينة",
      "Type_English": "city",
      "Metropolitan": "سرف",
      "District": "مكة",
      "Province": "البصرة"
    }
  }
},{
  "_id": {
    "$oid": "60acc503259febe16d36bb29"
  },
  "type": "Feature",
  "geometry": {
    "type": "Point",
    "coordinates": [
      36.00077,
      34.80454
    ]
  },
  "properties": {
    "placename": "خربة",
    "hebrewname": "חרבה",
    "englishname": "xrbah",
    "Description": "",
    "count": 16,
    "Relation": {
      "Type_Arabic": "-",
      "Type_English": "-",
      "Metropolitan": "-",
      "District": "-",
      "Province": "-"
    }
  }
},{
  "_id": {
    "$oid": "60acc503259febe16d36bb33"
  },
  "type": "Feature",
  "geometry": {
    "type": "Point",
    "coordinates": [
      37.29440343,
      27.38262207
    ]
  },
  "properties": {
    "placename": "تبوك",
    "hebrewname": "תבוכ",
    "englishname": "tbok",
    "Description": "",
    "count": 7,
    "Relation": {
      "Type_Arabic": "طريق",
      "Type_English": "road",
      "Metropolitan": "الحجر",
      "District": "-",
      "Province": "الشام"
    }
  }
},{
  "_id": {
    "$oid": "60acc503259febe16d36bb3b"
  },
  "type": "Feature",
  "geometry": {
    "type": "Point",
    "coordinates": [
      52.23957184909748,
      29.96490828988912
    ]
  },
  "properties": {
    "placename": "خلار",
    "hebrewname": "חלאר",
    "englishname": "xlar",
    "Description": "",
    "count": 3,
    "Relation": {
      "Type_Arabic": "موضع",
      "Type_English": "place",
      "Metropolitan": "نحل",
      "District": "-",
      "Province": "فارس"
    }
  }
},{
  "_id": {
    "$oid": "60acc503259febe16d36bb4a"
  },
  "type": "Feature",
  "geometry": {
    "type": "Point",
    "coordinates": [
      57.42444,
      23.39083
    ]
  },
  "properties": {
    "placename": "الرستاق",
    "hebrewname": "אלרסתאק",
    "englishname": "alrstaq",
    "Description": "",
    "count": 29,
    "Relation": {
      "Type_Arabic": "-",
      "Type_English": "-",
      "Metropolitan": "-",
      "District": "-",
      "Province": "-"
    }
  }
},{
  "_id": {
    "$oid": "60acc503259febe16d36bb5a"
  },
  "type": "Feature",
  "geometry": {
    "type": "Point",
    "coordinates": [
      44.40514,
      14.54274
    ]
  },
  "properties": {
    "placename": "ذمار",
    "hebrewname": "דמאר",
    "englishname": "Vmar",
    "Description": "",
    "count": 9,
    "Relation": {
      "Type_Arabic": "قرية",
      "Type_English": "village",
      "Metropolitan": "-",
      "District": "ذمار",
      "Province": "اليمن"
    }
  }
},{
  "_id": {
    "$oid": "60acc503259febe16d36bb6a"
  },
  "type": "Feature",
  "geometry": {
    "type": "Point",
    "coordinates": [
      5.76671,
      36.82055
    ]
  },
  "properties": {
    "placename": "جيجل",
    "hebrewname": "גיגל",
    "englishname": "jyjl",
    "Description": "",
    "count": 3,
    "Relation": {
      "Type_Arabic": "موضع",
      "Type_English": "place",
      "Metropolitan": "-",
      "District": "-",
      "Province": "-"
    }
  }
},{
  "_id": {
    "$oid": "60acc503259febe16d36bb6c"
  },
  "type": "Feature",
  "geometry": {
    "type": "Point",
    "coordinates": [
      -5.985959526057154,
      37.39362750121883
    ]
  },
  "properties": {
    "placename": "اشبيلية",
    "hebrewname": "אשביליה",
    "englishname": "ashbylyah",
    "Description": "",
    "count": 9,
    "Relation": {
      "Type_Arabic": "-",
      "Type_English": "-",
      "Metropolitan": "-",
      "District": "-",
      "Province": "-"
    }
  }
},{
  "_id": {
    "$oid": "60acc503259febe16d36bb6e"
  },
  "type": "Feature",
  "geometry": {
    "type": "Point",
    "coordinates": [
      31.48020202770042,
      27.01227167475513
    ]
  },
  "properties": {
    "placename": "جهينة",
    "hebrewname": "גהינה",
    "englishname": "jhynah",
    "Description": "",
    "count": 5,
    "Relation": {
      "Type_Arabic": "قبيلة",
      "Type_English": "tribe",
      "Metropolitan": "حرة النار",
      "District": "الموصل",
      "Province": "-"
    }
  }
},{
  "_id": {
    "$oid": "60acc503259febe16d36bb81"
  },
  "type": "Feature",
  "geometry": {
    "type": "Point",
    "coordinates": [
      35.97603,
      36.08012
    ]
  },
  "properties": {
    "placename": "السويدية",
    "hebrewname": "אלסוידיה",
    "englishname": "alsoydyah",
    "Description": "",
    "count": 7,
    "Relation": {
      "Type_Arabic": "-",
      "Type_English": "-",
      "Metropolitan": "-",
      "District": "-",
      "Province": "-"
    }
  }
},{
  "_id": {
    "$oid": "60acc503259febe16d36bb86"
  },
  "type": "Feature",
  "geometry": {
    "type": "Point",
    "coordinates": [
      52.53113,
      29.61031
    ]
  },
  "properties": {
    "placename": "شيراز",
    "hebrewname": "שיראז",
    "englishname": "shyraz",
    "Description": "",
    "count": 53,
    "Relation": {
      "Type_Arabic": "قصبة",
      "Type_English": "kasbah (city center)",
      "Metropolitan": "حارة",
      "District": "-",
      "Province": "فارس"
    }
  }
},{
  "_id": {
    "$oid": "60acc503259febe16d36bb87"
  },
  "type": "Feature",
  "geometry": {
    "type": "Point",
    "coordinates": [
      29.88079617,
      26.49020141
    ]
  },
  "properties": {
    "placename": "مصر",
    "hebrewname": "מצר",
    "englishname": "mSr",
    "Description": "",
    "count": 134,
    "Relation": {
      "Type_Arabic": "بلاد",
      "Type_English": "caliphate's country",
      "Metropolitan": "رشيد",
      "District": "النيل",
      "Province": "غربية"
    }
  }
},{
  "_id": {
    "$oid": "60acc503259febe16d36bb9d"
  },
  "type": "Feature",
  "geometry": {
    "type": "Point",
    "coordinates": [
      36.52718065015494,
      35.019927562302115
    ]
  },
  "properties": {
    "placename": "البجة",
    "hebrewname": "אלבגה",
    "englishname": "albjah",
    "Description": "",
    "count": 1,
    "Relation": {
      "Type_Arabic": "-",
      "Type_English": "-",
      "Metropolitan": "-",
      "District": "-",
      "Province": "-"
    }
  }
},{
  "_id": {
    "$oid": "60acc503259febe16d36bba1"
  },
  "type": "Feature",
  "geometry": {
    "type": "Point",
    "coordinates": [
      67.33142626251114,
      37.25871316223055
    ]
  },
  "properties": {
    "placename": "ترمذ",
    "hebrewname": "תרמד",
    "englishname": "trmV",
    "Description": "",
    "count": 13,
    "Relation": {
      "Type_Arabic": "مدينة",
      "Type_English": "city",
      "Metropolitan": "مرو",
      "District": "بلخ",
      "Province": "-"
    }
  }
},{
  "_id": {
    "$oid": "60acc503259febe16d36bbb4"
  },
  "type": "Feature",
  "geometry": {
    "type": "Point",
    "coordinates": [
      36.48256,
      32.52013
    ]
  },
  "properties": {
    "placename": "بصرى",
    "hebrewname": "בצרא",
    "englishname": "bSra",
    "Description": "",
    "count": 1,
    "Relation": {
      "Type_Arabic": "قصبة",
      "Type_English": "kasbah (city center)",
      "Metropolitan": "-",
      "District": "برقة",
      "Province": "الشام"
    }
  }
},{
  "_id": {
    "$oid": "60acc503259febe16d36bbbc"
  },
  "type": "Feature",
  "geometry": {
    "type": "Point",
    "coordinates": [
      44.403090395768,
      33.317005519953746
    ]
  },
  "properties": {
    "placename": "الكرخ",
    "hebrewname": "אלכרח",
    "englishname": "alkrx",
    "Description": "",
    "count": 5,
    "Relation": {
      "Type_Arabic": "كرخ",
      "Type_English": "metropolitan area",
      "Metropolitan": "بقر",
      "District": "-",
      "Province": "العراق"
    }
  }
},{
  "_id": {
    "$oid": "60acc503259febe16d36bbbf"
  },
  "type": "Feature",
  "geometry": {
    "type": "Point",
    "coordinates": [
      36.108118228800066,
      34.43287419009103
    ]
  },
  "properties": {
    "placename": "جيرون",
    "hebrewname": "גירונ",
    "englishname": "jyron",
    "Description": "",
    "count": 1,
    "Relation": {
      "Type_Arabic": "مدينة",
      "Type_English": "city",
      "Metropolitan": "الحوض",
      "District": "دمشق",
      "Province": "-"
    }
  }
},{
  "_id": {
    "$oid": "60acc503259febe16d36bbc9"
  },
  "type": "Feature",
  "geometry": {
    "type": "Point",
    "coordinates": [
      8.78417,
      34.425
    ]
  },
  "properties": {
    "placename": "قفصة",
    "hebrewname": "קפצה",
    "englishname": "qfSah",
    "Description": "",
    "count": 5,
    "Relation": {
      "Type_Arabic": "بلد",
      "Type_English": "town",
      "Metropolitan": "افريقية",
      "District": "السبخة",
      "Province": "-"
    }
  }
},{
  "_id": {
    "$oid": "60acc503259febe16d36bbd7"
  },
  "type": "Feature",
  "geometry": {
    "type": "Point",
    "coordinates": [
      51.43997,
      35.59354
    ]
  },
  "properties": {
    "placename": "الري",
    "hebrewname": "אלרי",
    "englishname": "alry",
    "Description": "",
    "count": 28,
    "Relation": {
      "Type_Arabic": "مدينة",
      "Type_English": "city",
      "Metropolitan": "دنباوند",
      "District": "بغداد",
      "Province": "الري"
    }
  }
},{
  "_id": {
    "$oid": "60acc503259febe16d36bbe1"
  },
  "type": "Feature",
  "geometry": {
    "type": "Point",
    "coordinates": [
      68.24395776764304,
      43.33374771211895
    ]
  },
  "properties": {
    "placename": "تركستان",
    "hebrewname": "תרכסתאנ",
    "englishname": "trkstan",
    "Description": "",
    "count": 1,
    "Relation": {
      "Type_Arabic": "جامع",
      "Type_English": "mosque",
      "Metropolitan": "ترك",
      "District": "-",
      "Province": "ما وراء النهر"
    }
  }
},{
  "_id": {
    "$oid": "60acc503259febe16d36bbf8"
  },
  "type": "Feature",
  "geometry": {
    "type": "Point",
    "coordinates": [
      42.44806,
      36.37913
    ]
  },
  "properties": {
    "placename": "تلعفر",
    "hebrewname": "תלעפר",
    "englishname": "tlCfr",
    "Description": "",
    "count": 3,
    "Relation": {
      "Type_Arabic": "-",
      "Type_English": "-",
      "Metropolitan": "-",
      "District": "-",
      "Province": "-"
    }
  }
},{
  "_id": {
    "$oid": "60acc503259febe16d36bbfa"
  },
  "type": "Feature",
  "geometry": {
    "type": "Point",
    "coordinates": [
      7.978594923776896,
      34.048258527447516
    ]
  },
  "properties": {
    "placename": "قسطيلية",
    "hebrewname": "קסטיליה",
    "englishname": "qsTylyah",
    "Description": "",
    "count": 11,
    "Relation": {
      "Type_Arabic": "مدينة",
      "Type_English": "city",
      "Metropolitan": "جريد",
      "District": "الزاب",
      "Province": "-"
    }
  }
},{
  "_id": {
    "$oid": "60acc503259febe16d36bc01"
  },
  "type": "Feature",
  "geometry": {
    "type": "Point",
    "coordinates": [
      35.96530561531946,
      32.03448260840968
    ]
  },
  "properties": {
    "placename": "القسطل",
    "hebrewname": "אלקסטל",
    "englishname": "alqsTl",
    "Description": "",
    "count": 3,
    "Relation": {
      "Type_Arabic": "موضع",
      "Type_English": "place",
      "Metropolitan": "-",
      "District": "-",
      "Province": "-"
    }
  }
},{
  "_id": {
    "$oid": "60acc503259febe16d36bc14"
  },
  "type": "Feature",
  "geometry": {
    "type": "Point",
    "coordinates": [
      44.55585370879064,
      23.62534384262695
    ]
  },
  "properties": {
    "placename": "نجد",
    "hebrewname": "נגד",
    "englishname": "njd",
    "Description": "",
    "count": 3,
    "Relation": {
      "Type_Arabic": "لغة",
      "Type_English": "language",
      "Metropolitan": "عجب",
      "District": "مهرة",
      "Province": "غطفان"
    }
  }
},{
  "_id": {
    "$oid": "60acc503259febe16d36bc1e"
  },
  "type": "Feature",
  "geometry": {
    "type": "Point",
    "coordinates": [
      52.74933092679433,
      28.870775227100253
    ]
  },
  "properties": {
    "placename": "ميمند",
    "hebrewname": "מימנד",
    "englishname": "mymnd",
    "Description": "",
    "count": 3,
    "Relation": {
      "Type_Arabic": "رستاق",
      "Type_English": "cultivated populated land",
      "Metropolitan": "-",
      "District": "-",
      "Province": "فارس"
    }
  }
},{
  "_id": {
    "$oid": "60acc503259febe16d36bc2a"
  },
  "type": "Feature",
  "geometry": {
    "type": "Point",
    "coordinates": [
      35.69766927950253,
      31.181746539805598
    ]
  },
  "properties": {
    "placename": "كرك",
    "hebrewname": "כרכ",
    "englishname": "krk",
    "Description": "",
    "count": 10,
    "Relation": {
      "Type_Arabic": "قرية",
      "Type_English": "village",
      "Metropolitan": "جبل لبنان",
      "District": "-",
      "Province": "الشام"
    }
  }
},{
  "_id": {
    "$oid": "60acc503259febe16d36bc57"
  },
  "type": "Feature",
  "geometry": {
    "type": "Point",
    "coordinates": [
      36.55923838442424,
      35.26166871264844
    ]
  },
  "properties": {
    "placename": "شيزر",
    "hebrewname": "שיזר",
    "englishname": "shyzr",
    "Description": "",
    "count": 6,
    "Relation": {
      "Type_Arabic": "قلعة",
      "Type_English": "castle",
      "Metropolitan": "معرة",
      "District": "حمص",
      "Province": "الشام"
    }
  }
},{
  "_id": {
    "$oid": "60acc503259febe16d36bc5e"
  },
  "type": "Feature",
  "geometry": {
    "type": "Point",
    "coordinates": [
      51.67462,
      32.65246
    ]
  },
  "properties": {
    "placename": "أصفهان",
    "hebrewname": "אצפהאנ",
    "englishname": "ASfhan",
    "Description": "",
    "count": 35,
    "Relation": {
      "Type_Arabic": "-",
      "Type_English": "-",
      "Metropolitan": "-",
      "District": "-",
      "Province": "-"
    }
  }
},{
  "_id": {
    "$oid": "60acc503259febe16d36bc65"
  },
  "type": "Feature",
  "geometry": {
    "type": "Point",
    "coordinates": [
      9.87391,
      37.27442
    ]
  },
  "properties": {
    "placename": "بنزرت",
    "hebrewname": "בנזרת",
    "englishname": "bnzrt",
    "Description": "",
    "count": 3,
    "Relation": {
      "Type_Arabic": "حصون",
      "Type_English": "forts",
      "Metropolitan": "شطفورة",
      "District": "-",
      "Province": "إفريقية"
    }
  }
},{
  "_id": {
    "$oid": "60acc503259febe16d36bc6e"
  },
  "type": "Feature",
  "geometry": {
    "type": "Point",
    "coordinates": [
      54.30402579,
      32.56323656
    ]
  },
  "properties": {
    "placename": "إيران",
    "hebrewname": "אייראנ",
    "englishname": "Ayran",
    "Description": "",
    "count": 1,
    "Relation": {
      "Type_Arabic": "-",
      "Type_English": "-",
      "Metropolitan": "-",
      "District": "-",
      "Province": "-"
    }
  }
},{
  "_id": {
    "$oid": "60acc503259febe16d36bc7b"
  },
  "type": "Feature",
  "geometry": {
    "type": "Point",
    "coordinates": [
      35.53124,
      32.79221
    ]
  },
  "properties": {
    "placename": "طبرية",
    "hebrewname": "טבריה",
    "englishname": "Tbryah",
    "Description": "",
    "count": 24,
    "Relation": {
      "Type_Arabic": "بليدة",
      "Type_English": "small town",
      "Metropolitan": "عكا",
      "District": "دمشق",
      "Province": "المغرب"
    }
  }
},{
  "_id": {
    "$oid": "60acc503259febe16d36bc7d"
  },
  "type": "Feature",
  "geometry": {
    "type": "Point",
    "coordinates": [
      46.72480882831236,
      24.60344010591322
    ]
  },
  "properties": {
    "placename": "العاقول",
    "hebrewname": "אלעאקול",
    "englishname": "alCaqol",
    "Description": "",
    "count": 8,
    "Relation": {
      "Type_Arabic": "-",
      "Type_English": "-",
      "Metropolitan": "-",
      "District": "-",
      "Province": "-"
    }
  }
},{
  "_id": {
    "$oid": "60acc503259febe16d36bc7e"
  },
  "type": "Feature",
  "geometry": {
    "type": "Point",
    "coordinates": [
      21.06765387,
      31.9759951
    ]
  },
  "properties": {
    "placename": "المرج",
    "hebrewname": "אלמרג",
    "englishname": "almrj",
    "Description": "",
    "count": 6,
    "Relation": {
      "Type_Arabic": "-",
      "Type_English": "-",
      "Metropolitan": "-",
      "District": "-",
      "Province": "-"
    }
  }
},{
  "_id": {
    "$oid": "60acc503259febe16d36bc82"
  },
  "type": "Feature",
  "geometry": {
    "type": "Point",
    "coordinates": [
      46.183004556852296,
      13.764380099815474
    ]
  },
  "properties": {
    "placename": "أبين",
    "hebrewname": "אבינ",
    "englishname": "Abyn",
    "Description": "",
    "count": 5,
    "Relation": {
      "Type_Arabic": "مخلاف",
      "Type_English": "yemeni district",
      "Metropolitan": "جبل عدن",
      "District": "-",
      "Province": "اليمن"
    }
  }
},{
  "_id": {
    "$oid": "60acc503259febe16d36bc84"
  },
  "type": "Feature",
  "geometry": {
    "type": "Point",
    "coordinates": [
      50.1311750546219,
      26.354008361434605
    ]
  },
  "properties": {
    "placename": "تهامة",
    "hebrewname": "תהאמה",
    "englishname": "thamah",
    "Description": "",
    "count": 3,
    "Relation": {
      "Type_Arabic": "أرض",
      "Type_English": "land",
      "Metropolitan": "وادي نخلة اليمانية",
      "District": "مكة",
      "Province": "اليمن"
    }
  }
},{
  "_id": {
    "$oid": "60acc503259febe16d36bc8a"
  },
  "type": "Feature",
  "geometry": {
    "type": "Point",
    "coordinates": [
      59.96459381863893,
      28.964289891537028
    ]
  },
  "properties": {
    "placename": "سجستان",
    "hebrewname": "סגסתאנ",
    "englishname": "sjstan",
    "Description": "",
    "count": 33,
    "Relation": {
      "Type_Arabic": "ناحية",
      "Type_English": "district",
      "Metropolitan": "بست",
      "District": "هراة",
      "Province": "كرمان"
    }
  }
},{
  "_id": {
    "$oid": "60acc503259febe16d36bc8c"
  },
  "type": "Feature",
  "geometry": {
    "type": "Point",
    "coordinates": [
      38.49238025043286,
      37.60585122733672
    ]
  },
  "properties": {
    "placename": "سميساط",
    "hebrewname": "סמיסאט",
    "englishname": "smysaT",
    "Description": "",
    "count": 3,
    "Relation": {
      "Type_Arabic": "مدينة",
      "Type_English": "city",
      "Metropolitan": "شق",
      "District": "الفرات",
      "Province": "الروم"
    }
  }
},{
  "_id": {
    "$oid": "60acc503259febe16d36bc8d"
  },
  "type": "Feature",
  "geometry": {
    "type": "Point",
    "coordinates": [
      10.0982,
      33.88146
    ]
  },
  "properties": {
    "placename": "قابس",
    "hebrewname": "קאבס",
    "englishname": "qabs",
    "Description": "",
    "count": 11,
    "Relation": {
      "Type_Arabic": "منازل",
      "Type_English": "abodes",
      "Metropolitan": "حاجة",
      "District": "البادية",
      "Province": "إفريقية"
    }
  }
},{
  "_id": {
    "$oid": "60acc503259febe16d36bc94"
  },
  "type": "Feature",
  "geometry": {
    "type": "Point",
    "coordinates": [
      39.814453125,
      21.4121622297254
    ]
  },
  "properties": {
    "placename": "الأهواز",
    "hebrewname": "אלאהואז",
    "englishname": "alAhoaz",
    "Description": "",
    "count": 60,
    "Relation": {
      "Type_Arabic": "كورة",
      "Type_English": "town",
      "Metropolitan": "أرجان",
      "District": "بغداد",
      "Province": "خراسان"
    }
  }
},{
  "_id": {
    "$oid": "60acc503259febe16d36bb21"
  },
  "type": "Feature",
  "geometry": {
    "type": "Point",
    "coordinates": [
      48.522768139704,
      34.80638910267082
    ]
  },
  "properties": {
    "placename": "همذان",
    "hebrewname": "להמדאנ",
    "englishname": "lhmVan",
    "Description": "",
    "count": 29,
    "Relation": {
      "Type_Arabic": "مدينة",
      "Type_English": "city",
      "Metropolitan": "ونجر",
      "District": "بغداد",
      "Province": "الكوفة"
    }
  }
},{
  "_id": {
    "$oid": "60acc503259febe16d36bb32"
  },
  "type": "Feature",
  "geometry": {
    "type": "Point",
    "coordinates": [
      41.87656,
      36.3209
    ]
  },
  "properties": {
    "placename": "سنجار",
    "hebrewname": "סנגאר",
    "englishname": "snjar",
    "Description": "",
    "count": 8,
    "Relation": {
      "Type_Arabic": "مدينة",
      "Type_English": "city",
      "Metropolitan": "جبل جودي",
      "District": "الحجاز",
      "Province": "الشام"
    }
  }
},{
  "_id": {
    "$oid": "60acc503259febe16d36bb4f"
  },
  "type": "Feature",
  "geometry": {
    "type": "Point",
    "coordinates": [
      56.44972434766654,
      27.073119755033034
    ]
  },
  "properties": {
    "placename": "هرمز",
    "hebrewname": "הרמז",
    "englishname": "hrmz",
    "Description": "",
    "count": 7,
    "Relation": {
      "Type_Arabic": "فرضة",
      "Type_English": "port",
      "Metropolitan": "خور",
      "District": "-",
      "Province": "-"
    }
  }
},{
  "_id": {
    "$oid": "60acc503259febe16d36bb54"
  },
  "type": "Feature",
  "geometry": {
    "type": "Point",
    "coordinates": [
      69.83045,
      37.12604
    ]
  },
  "properties": {
    "placename": "رستاق",
    "hebrewname": "רסתאק",
    "englishname": "rstaq",
    "Description": "",
    "count": 76,
    "Relation": {
      "Type_Arabic": "رستاق",
      "Type_English": "cultivated populated land",
      "Metropolitan": "-",
      "District": "-",
      "Province": "كرمان"
    }
  }
},{
  "_id": {
    "$oid": "60acc503259febe16d36bb71"
  },
  "type": "Feature",
  "geometry": {
    "type": "Point",
    "coordinates": [
      35.82998878022009,
      33.27932977292095
    ]
  },
  "properties": {
    "placename": "حوران",
    "hebrewname": "חוראנ",
    "englishname": "Horan",
    "Description": "",
    "count": 2,
    "Relation": {
      "Type_Arabic": "كور",
      "Type_English": "district",
      "Metropolitan": "الغور",
      "District": "دمشق",
      "Province": "الشام"
    }
  }
},{
  "_id": {
    "$oid": "60acc503259febe16d36bba8"
  },
  "type": "Feature",
  "geometry": {
    "type": "Point",
    "coordinates": [
      58.79575,
      36.21329
    ]
  },
  "properties": {
    "placename": "نيسابور",
    "hebrewname": "ניסאבור",
    "englishname": "nysabor",
    "Description": "",
    "count": 61,
    "Relation": {
      "Type_Arabic": "مدينة",
      "Type_English": "city",
      "Metropolitan": "راونير",
      "District": "بيهق",
      "Province": "جرجان"
    }
  }
},{
  "_id": {
    "$oid": "60acc503259febe16d36bbbb"
  },
  "type": "Feature",
  "geometry": {
    "type": "Point",
    "coordinates": [
      32.55197506,
      23.23416876
    ]
  },
  "properties": {
    "placename": "أسوان",
    "hebrewname": "אסואנ",
    "englishname": "Asoan",
    "Description": "",
    "count": 4,
    "Relation": {
      "Type_Arabic": "مدينة",
      "Type_English": "city",
      "Metropolitan": "تمر",
      "District": "الحجاز",
      "Province": "العراق"
    }
  }
},{
  "_id": {
    "$oid": "60acc503259febe16d36bbc6"
  },
  "type": "Feature",
  "geometry": {
    "type": "Point",
    "coordinates": [
      58.357,
      29.106
    ]
  },
  "properties": {
    "placename": "بم",
    "hebrewname": "במ",
    "englishname": "bm",
    "Description": "",
    "count": 22,
    "Relation": {
      "Type_Arabic": "مدينة",
      "Type_English": "city",
      "Metropolitan": "قني",
      "District": "-",
      "Province": "كرمان"
    }
  }
},{
  "_id": {
    "$oid": "60acc503259febe16d36bbcb"
  },
  "type": "Feature",
  "geometry": {
    "type": "Point",
    "coordinates": [
      36.2419,
      33.3581
    ]
  },
  "properties": {
    "placename": "الكسوة",
    "hebrewname": "אלכסוה",
    "englishname": "alksoah",
    "Description": "",
    "count": 2,
    "Relation": {
      "Type_Arabic": "قرية",
      "Type_English": "village",
      "Metropolitan": "-",
      "District": "حوران",
      "Province": "-"
    }
  }
},{
  "_id": {
    "$oid": "60acc503259febe16d36bbcf"
  },
  "type": "Feature",
  "geometry": {
    "type": "Point",
    "coordinates": [
      43.4973,
      25.86944
    ]
  },
  "properties": {
    "placename": "الرس",
    "hebrewname": "אלרס",
    "englishname": "alrs",
    "Description": "",
    "count": 7,
    "Relation": {
      "Type_Arabic": "بئر",
      "Type_English": "well",
      "Metropolitan": "-",
      "District": "-",
      "Province": "-"
    }
  }
},{
  "_id": {
    "$oid": "60acc503259febe16d36bbd3"
  },
  "type": "Feature",
  "geometry": {
    "type": "Point",
    "coordinates": [
      43.32222459451262,
      14.200654309491771
    ]
  },
  "properties": {
    "placename": "زبيد",
    "hebrewname": "לזביד",
    "englishname": "lzbyd",
    "Description": "",
    "count": 2,
    "Relation": {
      "Type_Arabic": "واد",
      "Type_English": "valley",
      "Metropolitan": "جبل وصاب",
      "District": "تهامة",
      "Province": "اليمن"
    }
  }
},{
  "_id": {
    "$oid": "60acc503259febe16d36bbde"
  },
  "type": "Feature",
  "geometry": {
    "type": "Point",
    "coordinates": [
      43.89317329736102,
      26.33140919244973
    ]
  },
  "properties": {
    "placename": "بريدا",
    "hebrewname": "ברידא",
    "englishname": "bryda",
    "Description": "",
    "count": 17,
    "Relation": {
      "Type_Arabic": "-",
      "Type_English": "-",
      "Metropolitan": "-",
      "District": "-",
      "Province": "-"
    }
  }
},{
  "_id": {
    "$oid": "60acc503259febe16d36bbfb"
  },
  "type": "Feature",
  "geometry": {
    "type": "Point",
    "coordinates": [
      -4.02263,
      39.8581
    ]
  },
  "properties": {
    "placename": "طليطلة",
    "hebrewname": "טליטלה",
    "englishname": "TlyTlah",
    "Description": "",
    "count": 5,
    "Relation": {
      "Type_Arabic": "ما",
      "Type_English": "water",
      "Metropolitan": "إستجة",
      "District": "-",
      "Province": "-"
    }
  }
},{
  "_id": {
    "$oid": "60acc503259febe16d36bc1a"
  },
  "type": "Feature",
  "geometry": {
    "type": "Point",
    "coordinates": [
      53.581349639499955,
      28.516103281182804
    ]
  },
  "properties": {
    "placename": "جهرم",
    "hebrewname": "גהרמ",
    "englishname": "jhrm",
    "Description": "",
    "count": 1,
    "Relation": {
      "Type_Arabic": "مدينة",
      "Type_English": "city",
      "Metropolitan": "-",
      "District": "-",
      "Province": "فارس"
    }
  }
},{
  "_id": {
    "$oid": "60acc503259febe16d36bc2c"
  },
  "type": "Feature",
  "geometry": {
    "type": "Point",
    "coordinates": [
      35.88466,
      32.48268
    ]
  },
  "properties": {
    "placename": "الحصن",
    "hebrewname": "אלחצנ",
    "englishname": "alHSn",
    "Description": "",
    "count": 22,
    "Relation": {
      "Type_Arabic": "موضع",
      "Type_English": "place",
      "Metropolitan": "المفجر",
      "District": "مكة",
      "Province": "-"
    }
  }
},{
  "_id": {
    "$oid": "60acc503259febe16d36bc2f"
  },
  "type": "Feature",
  "geometry": {
    "type": "Point",
    "coordinates": [
      52.05675425542539,
      35.69918256484406
    ]
  },
  "properties": {
    "placename": "دماوند",
    "hebrewname": "דמאונד",
    "englishname": "dmaond",
    "Description": "",
    "count": 5,
    "Relation": {
      "Type_Arabic": "لغة",
      "Type_English": "language",
      "Metropolitan": "دنباوند",
      "District": "-",
      "Province": "الري"
    }
  }
},{
  "_id": {
    "$oid": "60acc503259febe16d36bc40"
  },
  "type": "Feature",
  "geometry": {
    "type": "Point",
    "coordinates": [
      -9.389296349445297,
      30.904151534656727
    ]
  },
  "properties": {
    "placename": "جرار",
    "hebrewname": "גראר",
    "englishname": "jrar",
    "Description": "",
    "count": 4,
    "Relation": {
      "Type_Arabic": "جبل",
      "Type_English": "mountain",
      "Metropolitan": "الأبلق",
      "District": "-",
      "Province": "-"
    }
  }
},{
  "_id": {
    "$oid": "60acc503259febe16d36bc45"
  },
  "type": "Feature",
  "geometry": {
    "type": "Point",
    "coordinates": [
      44.53924645,
      32.63836306
    ]
  },
  "properties": {
    "placename": "بابل",
    "hebrewname": "באבל",
    "englishname": "babl",
    "Description": "",
    "count": 6,
    "Relation": {
      "Type_Arabic": "ناحية",
      "Type_English": "district",
      "Metropolitan": "سلام",
      "District": "الباب",
      "Province": "الكوفة"
    }
  }
},{
  "_id": {
    "$oid": "60acc503259febe16d36bc6c"
  },
  "type": "Feature",
  "geometry": {
    "type": "Point",
    "coordinates": [
      15.122380119789941,
      26.167685114435653
    ]
  },
  "properties": {
    "placename": "زويلة",
    "hebrewname": "זוילה",
    "englishname": "zoylah",
    "Description": "",
    "count": 4,
    "Relation": {
      "Type_Arabic": "مرحلة",
      "Type_English": "travelers station",
      "Metropolitan": "إمرة",
      "District": "برقة",
      "Province": "إفريقية"
    }
  }
},{
  "_id": {
    "$oid": "60acc503259febe16d36bc76"
  },
  "type": "Feature",
  "geometry": {
    "type": "Point",
    "coordinates": [
      10.10613432481689,
      33.887274808724335
    ]
  },
  "properties": {
    "placename": "نفزاوة",
    "hebrewname": "נפזאוה",
    "englishname": "nfzaoah",
    "Description": "",
    "count": 8,
    "Relation": {
      "Type_Arabic": "مدينة",
      "Type_English": "city",
      "Metropolitan": "خشب",
      "District": "السور",
      "Province": "إفريقية"
    }
  }
},{
  "_id": {
    "$oid": "60acc503259febe16d36bc81"
  },
  "type": "Feature",
  "geometry": {
    "type": "Point",
    "coordinates": [
      58.51811867578231,
      23.396585957632194
    ]
  },
  "properties": {
    "placename": "الحاجر",
    "hebrewname": "אלחאגר",
    "englishname": "alHajr",
    "Description": "",
    "count": 4,
    "Relation": {
      "Type_Arabic": "موضع",
      "Type_English": "place",
      "Metropolitan": "المعدن",
      "District": "-",
      "Province": "الكوفة"
    }
  }
},{
  "_id": {
    "$oid": "60acc503259febe16d36bc83"
  },
  "type": "Feature",
  "geometry": {
    "type": "Point",
    "coordinates": [
      39.34096545780391,
      22.150117773662576
    ]
  },
  "properties": {
    "placename": "خليص",
    "hebrewname": "חליצ",
    "englishname": "xlyS",
    "Description": "",
    "count": 6,
    "Relation": {
      "Type_Arabic": "حصن",
      "Type_English": "fort",
      "Metropolitan": "-",
      "District": "-",
      "Province": "-"
    }
  }
},{
  "_id": {
    "$oid": "60acc503259febe16d36bc91"
  },
  "type": "Feature",
  "geometry": {
    "type": "Point",
    "coordinates": [
      20.17712354214787,
      30.273296843497967
    ]
  },
  "properties": {
    "placename": "أجدابية",
    "hebrewname": "אגדאביה",
    "englishname": "Ajdabyah",
    "Description": "",
    "count": 2,
    "Relation": {
      "Type_Arabic": "بلد",
      "Type_English": "town",
      "Metropolitan": "عاص",
      "District": "برقة",
      "Province": "-"
    }
  }
},{
  "_id": {
    "$oid": "60acc503259febe16d36bc9f"
  },
  "type": "Feature",
  "geometry": {
    "type": "Point",
    "coordinates": [
      49.17416077182405,
      30.142416241246927
    ]
  },
  "properties": {
    "placename": "بونة",
    "hebrewname": "בונה",
    "englishname": "bonah",
    "Description": "",
    "count": 3,
    "Relation": {
      "Type_Arabic": "وادي",
      "Type_English": "valley",
      "Metropolitan": "-",
      "District": "-",
      "Province": "-"
    }
  }
},{
  "_id": {
    "$oid": "60acc503259febe16d36bca9"
  },
  "type": "Feature",
  "geometry": {
    "type": "Point",
    "coordinates": [
      -4.965090906828643,
      34.106295306197644
    ]
  },
  "properties": {
    "placename": "زالاغ",
    "hebrewname": "זאלאע",
    "englishname": "zalag",
    "Description": "",
    "count": 7,
    "Relation": {
      "Type_Arabic": "-",
      "Type_English": "-",
      "Metropolitan": "-",
      "District": "-",
      "Province": "-"
    }
  }
},{
  "_id": {
    "$oid": "60acc503259febe16d36bcac"
  },
  "type": "Feature",
  "geometry": {
    "type": "Point",
    "coordinates": [
      71.44174367,
      37.03574149
    ]
  },
  "properties": {
    "placename": "بدخشان",
    "hebrewname": "בדחשאנ",
    "englishname": "bdxshan",
    "Description": "",
    "count": 3,
    "Relation": {
      "Type_Arabic": "-",
      "Type_English": "-",
      "Metropolitan": "-",
      "District": "-",
      "Province": "-"
    }
  }
},{
  "_id": {
    "$oid": "60acc503259febe16d36bcb0"
  },
  "type": "Feature",
  "geometry": {
    "type": "Point",
    "coordinates": [
      36.72848,
      34.02403
    ]
  },
  "properties": {
    "placename": "النبك",
    "hebrewname": "אלנבכ",
    "englishname": "alnbk",
    "Description": "",
    "count": 7,
    "Relation": {
      "Type_Arabic": "قرية",
      "Type_English": "village",
      "Metropolitan": "-",
      "District": "-",
      "Province": "-"
    }
  }
},{
  "_id": {
    "$oid": "60acc503259febe16d36bb4b"
  },
  "type": "Feature",
  "geometry": {
    "type": "Point",
    "coordinates": [
      31.183321902717015,
      27.189733248712255
    ]
  },
  "properties": {
    "placename": "جلفار",
    "hebrewname": "גלפאר",
    "englishname": "jlfar",
    "Description": "",
    "count": 3,
    "Relation": {
      "Type_Arabic": "بلد",
      "Type_English": "town",
      "Metropolitan": "-",
      "District": "-",
      "Province": "عمان"
    }
  }
},{
  "_id": {
    "$oid": "60acc503259febe16d36bb63"
  },
  "type": "Feature",
  "geometry": {
    "type": "Point",
    "coordinates": [
      47.39757414,
      30.39626912
    ]
  },
  "properties": {
    "placename": "البصرة",
    "hebrewname": "אלבצרה",
    "englishname": "albSrah",
    "Description": "",
    "count": 85,
    "Relation": {
      "Type_Arabic": "مدينة",
      "Type_English": "city",
      "Metropolitan": "رميلة",
      "District": "دجلة",
      "Province": "البصرة"
    }
  }
},{
  "_id": {
    "$oid": "60acc503259febe16d36bb7c"
  },
  "type": "Feature",
  "geometry": {
    "type": "Point",
    "coordinates": [
      31.56223,
      30.42039
    ]
  },
  "properties": {
    "placename": "بلبيس",
    "hebrewname": "בלביס",
    "englishname": "blbys",
    "Description": "",
    "count": 12,
    "Relation": {
      "Type_Arabic": "-",
      "Type_English": "-",
      "Metropolitan": "المقدس",
      "District": "-",
      "Province": "مصر"
    }
  }
},{
  "_id": {
    "$oid": "60acc503259febe16d36bb91"
  },
  "type": "Feature",
  "geometry": {
    "type": "Point",
    "coordinates": [
      48.95922043,
      31.4963472
    ]
  },
  "properties": {
    "placename": "خوزستان",
    "hebrewname": "חוזסתאנ",
    "englishname": "xozstan",
    "Description": "",
    "count": 20,
    "Relation": {
      "Type_Arabic": "بلاد",
      "Type_English": "caliphate's country",
      "Metropolitan": "سلمى",
      "District": "دجلة",
      "Province": "العراق"
    }
  }
},{
  "_id": {
    "$oid": "60acc503259febe16d36bb9c"
  },
  "type": "Feature",
  "geometry": {
    "type": "Point",
    "coordinates": [
      38.5307687100933,
      27.62418183895774
    ]
  },
  "properties": {
    "placename": "تيماء",
    "hebrewname": "תימאא",
    "englishname": "tymaa",
    "Description": "",
    "count": 11,
    "Relation": {
      "Type_Arabic": "بليد",
      "Type_English": "small town",
      "Metropolitan": "أطراف",
      "District": "-",
      "Province": "الشام"
    }
  }
},{
  "_id": {
    "$oid": "60acc503259febe16d36bba9"
  },
  "type": "Feature",
  "geometry": {
    "type": "Point",
    "coordinates": [
      48.33485122409211,
      38.2539842440035
    ]
  },
  "properties": {
    "placename": "بست",
    "hebrewname": "בסת",
    "englishname": "bst",
    "Description": "",
    "count": 19,
    "Relation": {
      "Type_Arabic": "واد",
      "Type_English": "valley",
      "Metropolitan": "-",
      "District": "نيسابور",
      "Province": "أذربيجان"
    }
  }
},{
  "_id": {
    "$oid": "60acc503259febe16d36bbb7"
  },
  "type": "Feature",
  "geometry": {
    "type": "Point",
    "coordinates": [
      49.84059082651319,
      26.550497293032272
    ]
  },
  "properties": {
    "placename": "البحرين",
    "hebrewname": "אלבחרינ",
    "englishname": "albHryn",
    "Description": "",
    "count": 17,
    "Relation": {
      "Type_Arabic": "جامع",
      "Type_English": "mosque",
      "Metropolitan": "هجر",
      "District": "البحرين",
      "Province": "الكوفة"
    }
  }
},{
  "_id": {
    "$oid": "60acc503259febe16d36bbce"
  },
  "type": "Feature",
  "geometry": {
    "type": "Point",
    "coordinates": [
      46.88293217909484,
      36.51832777068336
    ]
  },
  "properties": {
    "placename": "مائين",
    "hebrewname": "מאאינ",
    "englishname": "maayn",
    "Description": "",
    "count": 1,
    "Relation": {
      "Type_Arabic": "بلد",
      "Type_English": "town",
      "Metropolitan": "شيراز",
      "District": "-",
      "Province": "فارس"
    }
  }
},{
  "_id": {
    "$oid": "60acc503259febe16d36bbd0"
  },
  "type": "Feature",
  "geometry": {
    "type": "Point",
    "coordinates": [
      48.627971930289064,
      31.924295143732966
    ]
  },
  "properties": {
    "placename": "خوزستان",
    "hebrewname": "בחוזסתאנ",
    "englishname": "bxozstan",
    "Description": "",
    "count": 7,
    "Relation": {
      "Type_Arabic": "بلاد",
      "Type_English": "caliphate's country",
      "Metropolitan": "سلمى",
      "District": "دجلة",
      "Province": "العراق"
    }
  }
},{
  "_id": {
    "$oid": "60acc503259febe16d36bbd4"
  },
  "type": "Feature",
  "geometry": {
    "type": "Point",
    "coordinates": [
      36.27793722,
      33.51557549
    ]
  },
  "properties": {
    "placename": "دمشق",
    "hebrewname": "דמשק",
    "englishname": "dmshq",
    "Description": "",
    "count": 82,
    "Relation": {
      "Type_Arabic": "مدينة",
      "Type_English": "city",
      "Metropolitan": "شهد",
      "District": "دمشق",
      "Province": "مصر"
    }
  }
},{
  "_id": {
    "$oid": "60acc503259febe16d36bbee"
  },
  "type": "Feature",
  "geometry": {
    "type": "Point",
    "coordinates": [
      103.8310775,
      36.56380228
    ]
  },
  "properties": {
    "placename": "الصين",
    "hebrewname": "אלצינ",
    "englishname": "alSyn",
    "Description": "",
    "count": 29,
    "Relation": {
      "Type_Arabic": "بلاد",
      "Type_English": "caliphate's country",
      "Metropolitan": "باب الأبواب",
      "District": "الباب",
      "Province": "اليمن"
    }
  }
},{
  "_id": {
    "$oid": "60acc503259febe16d36bc24"
  },
  "type": "Feature",
  "geometry": {
    "type": "Point",
    "coordinates": [
      62.19967,
      34.34817
    ]
  },
  "properties": {
    "placename": "هراة",
    "hebrewname": "הראה",
    "englishname": "hraah",
    "Description": "",
    "count": 49,
    "Relation": {
      "Type_Arabic": "مدينة",
      "Type_English": "city",
      "Metropolitan": "عامر",
      "District": "سرخس",
      "Province": "الصين"
    }
  }
},{
  "_id": {
    "$oid": "60acc503259febe16d36bc33"
  },
  "type": "Feature",
  "geometry": {
    "type": "Point",
    "coordinates": [
      -5.79975,
      35.76727
    ]
  },
  "properties": {
    "placename": "طنجة",
    "hebrewname": "טנגה",
    "englishname": "Tnjah",
    "Description": "",
    "count": 8,
    "Relation": {
      "Type_Arabic": "مدينة",
      "Type_English": "city",
      "Metropolitan": "الزاوية",
      "District": "-",
      "Province": "المغرب"
    }
  }
},{
  "_id": {
    "$oid": "60acc503259febe16d36bc35"
  },
  "type": "Feature",
  "geometry": {
    "type": "Point",
    "coordinates": [
      45.52904,
      14.85192
    ]
  },
  "properties": {
    "placename": "عين",
    "hebrewname": "עינ",
    "englishname": "Cyn",
    "Description": "",
    "count": 61,
    "Relation": {
      "Type_Arabic": "موضع",
      "Type_English": "place",
      "Metropolitan": "-",
      "District": "-",
      "Province": "هذيل"
    }
  }
},{
  "_id": {
    "$oid": "60acc503259febe16d36bc42"
  },
  "type": "Feature",
  "geometry": {
    "type": "Point",
    "coordinates": [
      35.181133120623024,
      32.579675882618474
    ]
  },
  "properties": {
    "placename": "اللجون",
    "hebrewname": "אללגונ",
    "englishname": "alljon",
    "Description": "",
    "count": 11,
    "Relation": {
      "Type_Arabic": "بلد",
      "Type_English": "town",
      "Metropolitan": "الأردن",
      "District": "-",
      "Province": "-"
    }
  }
},{
  "_id": {
    "$oid": "60acc503259febe16d36bc4a"
  },
  "type": "Feature",
  "geometry": {
    "type": "Point",
    "coordinates": [
      67.82734,
      34.82156
    ]
  },
  "properties": {
    "placename": "باميان",
    "hebrewname": "באמיאנ",
    "englishname": "bamyan",
    "Description": "",
    "count": 3,
    "Relation": {
      "Type_Arabic": "بلدة",
      "Type_English": "town",
      "Metropolitan": "الخرج",
      "District": "-",
      "Province": "-"
    }
  }
},{
  "_id": {
    "$oid": "60acc503259febe16d36bc4e"
  },
  "type": "Feature",
  "geometry": {
    "type": "Point",
    "coordinates": [
      49.26443873822338,
      40.71880645314996
    ]
  },
  "properties": {
    "placename": "الخزر",
    "hebrewname": "אלחזר",
    "englishname": "alxzr",
    "Description": "",
    "count": 18,
    "Relation": {
      "Type_Arabic": "-",
      "Type_English": "-",
      "Metropolitan": "-",
      "District": "-",
      "Province": "-"
    }
  }
},{
  "_id": {
    "$oid": "60acc503259febe16d36bc74"
  },
  "type": "Feature",
  "geometry": {
    "type": "Point",
    "coordinates": [
      52.57107693122869,
      27.490135391743852
    ]
  },
  "properties": {
    "placename": "نابند",
    "hebrewname": "נאבנד",
    "englishname": "nabnd",
    "Description": "",
    "count": 7,
    "Relation": {
      "Type_Arabic": "-",
      "Type_English": "-",
      "Metropolitan": "-",
      "District": "-",
      "Province": "-"
    }
  }
},{
  "_id": {
    "$oid": "60acc503259febe16d36bc7a"
  },
  "type": "Feature",
  "geometry": {
    "type": "Point",
    "coordinates": [
      53.271717502255385,
      31.12951374974626
    ]
  },
  "properties": {
    "placename": "أبرقوه",
    "hebrewname": "אברקוה",
    "englishname": "Abrqoh",
    "Description": "",
    "count": 3,
    "Relation": {
      "Type_Arabic": "بلد",
      "Type_English": "town",
      "Metropolitan": "الجار",
      "District": "أصبهان",
      "Province": "فارس"
    }
  }
},{
  "_id": {
    "$oid": "60acc503259febe16d36bc88"
  },
  "type": "Feature",
  "geometry": {
    "type": "Point",
    "coordinates": [
      53.18619713,
      29.29639233
    ]
  },
  "properties": {
    "placename": "فارس",
    "hebrewname": "פארס",
    "englishname": "fars",
    "Description": "",
    "count": 77,
    "Relation": {
      "Type_Arabic": "ولاية",
      "Type_English": "non-arab province",
      "Metropolitan": "إصطخر",
      "District": "يزد",
      "Province": "فارس"
    }
  }
},{
  "_id": {
    "$oid": "60acc503259febe16d36bc92"
  },
  "type": "Feature",
  "geometry": {
    "type": "Point",
    "coordinates": [
      44.53483654008221,
      40.24993891124739
    ]
  },
  "properties": {
    "placename": "أرمينية",
    "hebrewname": "ארמיניה",
    "englishname": "Armynyah",
    "Description": "",
    "count": 5,
    "Relation": {
      "Type_Arabic": "-",
      "Type_English": "-",
      "Metropolitan": "دبيل",
      "District": "-",
      "Province": "أذربيجان"
    }
  }
},{
  "_id": {
    "$oid": "60acc503259febe16d36bcb5"
  },
  "type": "Feature",
  "geometry": {
    "type": "Point",
    "coordinates": [
      32.030820168930205,
      31.17898483521012
    ]
  },
  "properties": {
    "placename": "تنيس",
    "hebrewname": "תניס",
    "englishname": "tnys",
    "Description": "",
    "count": 12,
    "Relation": {
      "Type_Arabic": "حد",
      "Type_English": "border",
      "Metropolitan": "الفرما",
      "District": "البحرين",
      "Province": "الروم"
    }
  }
},{
  "_id": {
    "$oid": "60acc503259febe16d36bb28"
  },
  "type": "Feature",
  "geometry": {
    "type": "Point",
    "coordinates": [
      44.57238954,
      13.17058867
    ]
  },
  "properties": {
    "placename": "لحج",
    "hebrewname": "לחג",
    "englishname": "lHj",
    "Description": "",
    "count": 1,
    "Relation": {
      "Type_Arabic": "موضع",
      "Type_English": "place",
      "Metropolitan": "حمير",
      "District": "-",
      "Province": "اليمن"
    }
  }
},{
  "_id": {
    "$oid": "60acc503259febe16d36bb39"
  },
  "type": "Feature",
  "geometry": {
    "type": "Point",
    "coordinates": [
      36.3006518,
      33.5123279
    ]
  },
  "properties": {
    "placename": "الغوطة",
    "hebrewname": "אלעוטה",
    "englishname": "algoTah",
    "Description": "",
    "count": 4,
    "Relation": {
      "Type_Arabic": "كورة",
      "Type_English": "town",
      "Metropolitan": "-",
      "District": "-",
      "Province": "-"
    }
  }
},{
  "_id": {
    "$oid": "60acc503259febe16d36bb5e"
  },
  "type": "Feature",
  "geometry": {
    "type": "Point",
    "coordinates": [
      36.17775,
      30.3184
    ]
  },
  "properties": {
    "placename": "الجفر",
    "hebrewname": "אלגפר",
    "englishname": "aljfr",
    "Description": "",
    "count": 2,
    "Relation": {
      "Type_Arabic": "بئر",
      "Type_English": "well",
      "Metropolitan": "ضرية",
      "District": "-",
      "Province": "-"
    }
  }
},{
  "_id": {
    "$oid": "60acc503259febe16d36bb84"
  },
  "type": "Feature",
  "geometry": {
    "type": "Point",
    "coordinates": [
      31.280387915292607,
      30.136231027031855
    ]
  },
  "properties": {
    "placename": "الريف",
    "hebrewname": "אלריפ",
    "englishname": "alryf",
    "Description": "",
    "count": 10,
    "Relation": {
      "Type_Arabic": "-",
      "Type_English": "-",
      "Metropolitan": "-",
      "District": "-",
      "Province": "-"
    }
  }
},{
  "_id": {
    "$oid": "60acc503259febe16d36bb99"
  },
  "type": "Feature",
  "geometry": {
    "type": "Point",
    "coordinates": [
      42.82768,
      33.63664
    ]
  },
  "properties": {
    "placename": "هيت",
    "hebrewname": "הית",
    "englishname": "hyt",
    "Description": "",
    "count": 10,
    "Relation": {
      "Type_Arabic": "بلدة",
      "Type_English": "town",
      "Metropolitan": "الأنبار",
      "District": "الفرات",
      "Province": "العراق"
    }
  }
},{
  "_id": {
    "$oid": "60acc503259febe16d36bba4"
  },
  "type": "Feature",
  "geometry": {
    "type": "Point",
    "coordinates": [
      35.3561114431309,
      30.710297740626153
    ]
  },
  "properties": {
    "placename": "الشراة",
    "hebrewname": "אלשראה",
    "englishname": "alshraah",
    "Description": "",
    "count": 11,
    "Relation": {
      "Type_Arabic": "جبل",
      "Type_English": "mountain",
      "Metropolitan": "الشراة",
      "District": "-",
      "Province": "عمان"
    }
  }
},{
  "_id": {
    "$oid": "60acc503259febe16d36bba7"
  },
  "type": "Feature",
  "geometry": {
    "type": "Point",
    "coordinates": [
      35.19470214843749,
      31.763202209896075
    ]
  },
  "properties": {
    "placename": "فلسطين",
    "hebrewname": "פלסטינ",
    "englishname": "flsTyn",
    "Description": "",
    "count": 34,
    "Relation": {
      "Type_Arabic": "أرض",
      "Type_English": "land",
      "Metropolitan": "الرملة",
      "District": "-",
      "Province": "الشام"
    }
  }
},{
  "_id": {
    "$oid": "60acc503259febe16d36bbaa"
  },
  "type": "Feature",
  "geometry": {
    "type": "Point",
    "coordinates": [
      44.150762555496684,
      13.32634640351873
    ]
  },
  "properties": {
    "placename": "جنابة",
    "hebrewname": "גנאבה",
    "englishname": "jnabah",
    "Description": "",
    "count": 9,
    "Relation": {
      "Type_Arabic": "فرضة",
      "Type_English": "port",
      "Metropolitan": "المراكب",
      "District": "البحرين",
      "Province": "الصين"
    }
  }
},{
  "_id": {
    "$oid": "60acc503259febe16d36bbad"
  },
  "type": "Feature",
  "geometry": {
    "type": "Point",
    "coordinates": [
      49.60537,
      14.76026
    ]
  },
  "properties": {
    "placename": "الشحر",
    "hebrewname": "אלשחר",
    "englishname": "alshHr",
    "Description": "",
    "count": 3,
    "Relation": {
      "Type_Arabic": "صقع",
      "Type_English": "region",
      "Metropolitan": "صحار",
      "District": "بحر الهند",
      "Province": "اليمن"
    }
  }
},{
  "_id": {
    "$oid": "60acc503259febe16d36bbb6"
  },
  "type": "Feature",
  "geometry": {
    "type": "Point",
    "coordinates": [
      43.78015956,
      33.02990519
    ]
  },
  "properties": {
    "placename": "العراق",
    "hebrewname": "אלעראק",
    "englishname": "alCraq",
    "Description": "",
    "count": 61,
    "Relation": {
      "Type_Arabic": "ماء",
      "Type_English": "water",
      "Metropolitan": "القف",
      "District": "الحجاز",
      "Province": "المغرب"
    }
  }
},{
  "_id": {
    "$oid": "60acc503259febe16d36bbe2"
  },
  "type": "Feature",
  "geometry": {
    "type": "Point",
    "coordinates": [
      49.08939773547354,
      31.686210386697528
    ]
  },
  "properties": {
    "placename": "خورستان",
    "hebrewname": "חורסתאנ",
    "englishname": "xorstan",
    "Description": "",
    "count": 1,
    "Relation": {
      "Type_Arabic": "-",
      "Type_English": "-",
      "Metropolitan": "-",
      "District": "-",
      "Province": "-"
    }
  }
},{
  "_id": {
    "$oid": "60acc503259febe16d36bbe5"
  },
  "type": "Feature",
  "geometry": {
    "type": "Point",
    "coordinates": [
      35.66813649,
      31.97563763
    ]
  },
  "properties": {
    "placename": "البلقاء",
    "hebrewname": "אלבלקאא",
    "englishname": "alblqaa",
    "Description": "",
    "count": 2,
    "Relation": {
      "Type_Arabic": "كورة",
      "Type_English": "town",
      "Metropolitan": "الإسكندرية",
      "District": "دمشق",
      "Province": "الشام"
    }
  }
},{
  "_id": {
    "$oid": "60acc503259febe16d36bbfe"
  },
  "type": "Feature",
  "geometry": {
    "type": "Point",
    "coordinates": [
      -4.42034,
      36.72016
    ]
  },
  "properties": {
    "placename": "مالقة",
    "hebrewname": "מאלקה",
    "englishname": "malqah",
    "Description": "",
    "count": 8,
    "Relation": {
      "Type_Arabic": "مدينة",
      "Type_English": "city",
      "Metropolitan": "بحر مجاز",
      "District": "-",
      "Province": "-"
    }
  }
},{
  "_id": {
    "$oid": "60acc503259febe16d36bc02"
  },
  "type": "Feature",
  "geometry": {
    "type": "Point",
    "coordinates": [
      50.22934198542041,
      36.1327622473742
    ]
  },
  "properties": {
    "placename": "هزار",
    "hebrewname": "הזאר",
    "englishname": "hzar",
    "Description": "",
    "count": 1,
    "Relation": {
      "Type_Arabic": "-",
      "Type_English": "-",
      "Metropolitan": "-",
      "District": "-",
      "Province": "-"
    }
  }
},{
  "_id": {
    "$oid": "60acc503259febe16d36bc04"
  },
  "type": "Feature",
  "geometry": {
    "type": "Point",
    "coordinates": [
      34.89277,
      36.91766
    ]
  },
  "properties": {
    "placename": "طرسوس",
    "hebrewname": "טרסוס",
    "englishname": "Trsos",
    "Description": "",
    "count": 6,
    "Relation": {
      "Type_Arabic": "مدينة",
      "Type_English": "city",
      "Metropolitan": "ملك",
      "District": "ثغور الشام",
      "Province": "الروم"
    }
  }
},{
  "_id": {
    "$oid": "60acc503259febe16d36bc09"
  },
  "type": "Feature",
  "geometry": {
    "type": "Point",
    "coordinates": [
      36.15722,
      36.20655
    ]
  },
  "properties": {
    "placename": "أنطاكية",
    "hebrewname": "אנטאכיה",
    "englishname": "AnTakyah",
    "Description": "",
    "count": 2,
    "Relation": {
      "Type_Arabic": "نخل",
      "Type_English": "date palm orchard",
      "Metropolitan": "قسطنطينية",
      "District": "السور",
      "Province": "نوبة"
    }
  }
},{
  "_id": {
    "$oid": "60acc503259febe16d36bc0a"
  },
  "type": "Feature",
  "geometry": {
    "type": "Point",
    "coordinates": [
      20.25205,
      31.66818
    ]
  },
  "properties": {
    "placename": "سلوق",
    "hebrewname": "סלוק",
    "englishname": "sloq",
    "Description": "",
    "count": 3,
    "Relation": {
      "Type_Arabic": "مدينة",
      "Type_English": "city",
      "Metropolitan": "-",
      "District": "-",
      "Province": "اليمن"
    }
  }
},{
  "_id": {
    "$oid": "60acc503259febe16d36bc19"
  },
  "type": "Feature",
  "geometry": {
    "type": "Point",
    "coordinates": [
      50.833834791267385,
      28.900360906832432
    ]
  },
  "properties": {
    "placename": "ريشهر",
    "hebrewname": "רישהר",
    "englishname": "ryshhr",
    "Description": "",
    "count": 5,
    "Relation": {
      "Type_Arabic": "ناحية",
      "Type_English": "district",
      "Metropolitan": "أرجان",
      "District": "-",
      "Province": "-"
    }
  }
},{
  "_id": {
    "$oid": "60acc503259febe16d36bc1b"
  },
  "type": "Feature",
  "geometry": {
    "type": "Point",
    "coordinates": [
      51.17435927604284,
      24.902182596934065
    ]
  },
  "properties": {
    "placename": "الخرارة",
    "hebrewname": "אלחרארה",
    "englishname": "alxrarah",
    "Description": "",
    "count": 3,
    "Relation": {
      "Type_Arabic": "موضع",
      "Type_English": "place",
      "Metropolitan": "سيلحون",
      "District": "-",
      "Province": "الكوفة"
    }
  }
},{
  "_id": {
    "$oid": "60acc503259febe16d36bc46"
  },
  "type": "Feature",
  "geometry": {
    "type": "Point",
    "coordinates": [
      42.17638755545029,
      37.21491870272321
    ]
  },
  "properties": {
    "placename": "كفرتوثا",
    "hebrewname": "כפרתותא",
    "englishname": "kfrtova",
    "Description": "",
    "count": 2,
    "Relation": {
      "Type_Arabic": "قرية",
      "Type_English": "village",
      "Metropolitan": "-",
      "District": "-",
      "Province": "-"
    }
  }
},{
  "_id": {
    "$oid": "60acc503259febe16d36bc48"
  },
  "type": "Feature",
  "geometry": {
    "type": "Point",
    "coordinates": [
      9.184162,
      36.726581
    ]
  },
  "properties": {
    "placename": "باجة",
    "hebrewname": "באגה",
    "englishname": "bajah",
    "Description": "",
    "count": 14,
    "Relation": {
      "Type_Arabic": "مواضع",
      "Type_English": "places",
      "Metropolitan": "اجة",
      "District": "-",
      "Province": "إفريقية"
    }
  }
},{
  "_id": {
    "$oid": "60acc503259febe16d36bc50"
  },
  "type": "Feature",
  "geometry": {
    "type": "Point",
    "coordinates": [
      43.9835840124656,
      36.59685416133607
    ]
  },
  "properties": {
    "placename": "نهر الزاب",
    "hebrewname": "אלזאב",
    "englishname": "alzab",
    "Description": "",
    "count": 12,
    "Relation": {
      "Type_Arabic": "-",
      "Type_English": "-",
      "Metropolitan": "-",
      "District": "-",
      "Province": "-"
    }
  }
},{
  "_id": {
    "$oid": "60acc503259febe16d36bc5d"
  },
  "type": "Feature",
  "geometry": {
    "type": "Point",
    "coordinates": [
      -1.315,
      34.87833
    ]
  },
  "properties": {
    "placename": "تلمسان",
    "hebrewname": "תלמסאנ",
    "englishname": "tlmsan",
    "Description": "",
    "count": 5,
    "Relation": {
      "Type_Arabic": "مدينة",
      "Type_English": "city",
      "Metropolitan": "ناس",
      "District": "-",
      "Province": "المغرب"
    }
  }
},{
  "_id": {
    "$oid": "60acc503259febe16d36bc63"
  },
  "type": "Feature",
  "geometry": {
    "type": "Point",
    "coordinates": [
      44.279236798824606,
      33.740025395911715
    ]
  },
  "properties": {
    "placename": "تارم",
    "hebrewname": "תארמ",
    "englishname": "tarm",
    "Description": "",
    "count": 11,
    "Relation": {
      "Type_Arabic": "كورة",
      "Type_English": "town",
      "Metropolitan": "قزوين",
      "District": "-",
      "Province": "-"
    }
  }
},{
  "_id": {
    "$oid": "60acc503259febe16d36bc80"
  },
  "type": "Feature",
  "geometry": {
    "type": "Point",
    "coordinates": [
      3.188074667219603,
      36.6323863640724
    ]
  },
  "properties": {
    "placename": "متيجة",
    "hebrewname": "מתיגה",
    "englishname": "mtyjah",
    "Description": "",
    "count": 3,
    "Relation": {
      "Type_Arabic": "بلد",
      "Type_English": "town",
      "Metropolitan": "الأرحاء",
      "District": "-",
      "Province": "إفريقية"
    }
  }
},{
  "_id": {
    "$oid": "60acc503259febe16d36bc8f"
  },
  "type": "Feature",
  "geometry": {
    "type": "Point",
    "coordinates": [
      9.073848705833939,
      35.54608877121325
    ]
  },
  "properties": {
    "placename": "سبيبة",
    "hebrewname": "סביבה",
    "englishname": "sbybah",
    "Description": "",
    "count": 5,
    "Relation": {
      "Type_Arabic": "موضع",
      "Type_English": "place",
      "Metropolitan": "القيروان",
      "District": "-",
      "Province": "إفريقية"
    }
  }
},{
  "_id": {
    "$oid": "60acc503259febe16d36bc97"
  },
  "type": "Feature",
  "geometry": {
    "type": "Point",
    "coordinates": [
      35.49442,
      33.88894
    ]
  },
  "properties": {
    "placename": "بيروت",
    "hebrewname": "בירות",
    "englishname": "byrot",
    "Description": "",
    "count": 16,
    "Relation": {
      "Type_Arabic": "مدينة",
      "Type_English": "city",
      "Metropolitan": "بحر شام",
      "District": "دمشق",
      "Province": "-"
    }
  }
},{
  "_id": {
    "$oid": "60acc503259febe16d36bc99"
  },
  "type": "Feature",
  "geometry": {
    "type": "Point",
    "coordinates": [
      41.197594432778494,
      33.139831211542834
    ]
  },
  "properties": {
    "placename": "الأنبار",
    "hebrewname": "אלאנבאר",
    "englishname": "alAnbar",
    "Description": "",
    "count": 8,
    "Relation": {
      "Type_Arabic": "قصبة",
      "Type_English": "kasbah (city center)",
      "Metropolitan": "الأعلم",
      "District": "الفرات",
      "Province": "نوبة"
    }
  }
},{
  "_id": {
    "$oid": "60acc503259febe16d36bc9b"
  },
  "type": "Feature",
  "geometry": {
    "type": "Point",
    "coordinates": [
      51.59796973317743,
      33.533833308498124
    ]
  },
  "properties": {
    "placename": "سروستان",
    "hebrewname": "סרוסתאנ",
    "englishname": "srostan",
    "Description": "",
    "count": 13,
    "Relation": {
      "Type_Arabic": "بلد",
      "Type_English": "town",
      "Metropolitan": "-",
      "District": "-",
      "Province": "فارس"
    }
  }
},{
  "_id": {
    "$oid": "60acc503259febe16d36bca6"
  },
  "type": "Feature",
  "geometry": {
    "type": "Point",
    "coordinates": [
      43.92312653,
      17.07063574
    ]
  },
  "properties": {
    "placename": "صعدة",
    "hebrewname": "צעדה",
    "englishname": "SCdah",
    "Description": "",
    "count": 11,
    "Relation": {
      "Type_Arabic": "مخلاف",
      "Type_English": "yemeni district",
      "Metropolitan": "أدم",
      "District": "خولان",
      "Province": "اليمن"
    }
  }
},{
  "_id": {
    "$oid": "60acc503259febe16d36bcb2"
  },
  "type": "Feature",
  "geometry": {
    "type": "Point",
    "coordinates": [
      35.49632,
      32.49728
    ]
  },
  "properties": {
    "placename": "بيسان",
    "hebrewname": "ביסאנ",
    "englishname": "bysan",
    "Description": "",
    "count": 11,
    "Relation": {
      "Type_Arabic": "عين",
      "Type_English": "spring",
      "Metropolitan": "الأردن",
      "District": "-",
      "Province": "-"
    }
  }
},{
  "_id": {
    "$oid": "60acc503259febe16d36bcb9"
  },
  "type": "Feature",
  "geometry": {
    "type": "Point",
    "coordinates": [
      35.734630071643956,
      33.10951297272503
    ]
  },
  "properties": {
    "placename": "الجولان",
    "hebrewname": "אלגולאנ",
    "englishname": "aljolan",
    "Description": "",
    "count": 3,
    "Relation": {
      "Type_Arabic": "جبل",
      "Type_English": "mountain",
      "Metropolitan": "-",
      "District": "دمشق",
      "Province": "-"
    }
  }
},{
  "_id": {
    "$oid": "60acc503259febe16d36bb2b"
  },
  "type": "Feature",
  "geometry": {
    "type": "Point",
    "coordinates": [
      51.40405836691442,
      35.71020830066921
    ]
  },
  "properties": {
    "placename": "بهراة",
    "hebrewname": "בהראה",
    "englishname": "bhraah",
    "Description": "",
    "count": 2,
    "Relation": {
      "Type_Arabic": "-",
      "Type_English": "-",
      "Metropolitan": "-",
      "District": "-",
      "Province": "-"
    }
  }
},{
  "_id": {
    "$oid": "60acc503259febe16d36bb30"
  },
  "type": "Feature",
  "geometry": {
    "type": "Point",
    "coordinates": [
      52.342328300188974,
      27.66799656682619
    ]
  },
  "properties": {
    "placename": "سيراف",
    "hebrewname": "סיראפ",
    "englishname": "syraf",
    "Description": "",
    "count": 21,
    "Relation": {
      "Type_Arabic": "ماء",
      "Type_English": "water",
      "Metropolitan": "بحر فارس",
      "District": "-",
      "Province": "فارس"
    }
  }
},{
  "_id": {
    "$oid": "60acc503259febe16d36bb42"
  },
  "type": "Feature",
  "geometry": {
    "type": "Point",
    "coordinates": [
      35.725907009218375,
      34.132612694138516
    ]
  },
  "properties": {
    "placename": "لبنان",
    "hebrewname": "לבנאנ",
    "englishname": "lbnan",
    "Description": "",
    "count": 8,
    "Relation": {
      "Type_Arabic": "جبل",
      "Type_English": "mountain",
      "Metropolitan": "العرج",
      "District": "حمص",
      "Province": "الشام"
    }
  }
},{
  "_id": {
    "$oid": "60acc503259febe16d36bb53"
  },
  "type": "Feature",
  "geometry": {
    "type": "Point",
    "coordinates": [
      61.1577,
      36.5449
    ]
  },
  "properties": {
    "placename": "سرخس",
    "hebrewname": "סרחס",
    "englishname": "srxs",
    "Description": "",
    "count": 26,
    "Relation": {
      "Type_Arabic": "مدينة",
      "Type_English": "city",
      "Metropolitan": "الواعظ",
      "District": "هراة",
      "Province": "خراسان"
    }
  }
},{
  "_id": {
    "$oid": "60acc503259febe16d36bb59"
  },
  "type": "Feature",
  "geometry": {
    "type": "Point",
    "coordinates": [
      43.32162366679292,
      14.214216315980421
    ]
  },
  "properties": {
    "placename": "غلافقة",
    "hebrewname": "עלאפקה",
    "englishname": "glafqah",
    "Description": "",
    "count": 7,
    "Relation": {
      "Type_Arabic": "بلد",
      "Type_English": "town",
      "Metropolitan": "بحر يمن",
      "District": "-",
      "Province": "-"
    }
  }
},{
  "_id": {
    "$oid": "60acc503259febe16d36bb65"
  },
  "type": "Feature",
  "geometry": {
    "type": "Point",
    "coordinates": [
      71.78432,
      40.38421
    ]
  },
  "properties": {
    "placename": "فرغانة",
    "hebrewname": "פרעאנה",
    "englishname": "frganah",
    "Description": "",
    "count": 17,
    "Relation": {
      "Type_Arabic": "مدينة",
      "Type_English": "city",
      "Metropolitan": "قبا",
      "District": "شاش",
      "Province": "ما وراء النهر"
    }
  }
},{
  "_id": {
    "$oid": "60acc503259febe16d36bb68"
  },
  "type": "Feature",
  "geometry": {
    "type": "Point",
    "coordinates": [
      56.26176,
      25.59246
    ]
  },
  "properties": {
    "placename": "دبا",
    "hebrewname": "דבא",
    "englishname": "dba",
    "Description": "",
    "count": 9,
    "Relation": {
      "Type_Arabic": "سوق",
      "Type_English": "market",
      "Metropolitan": "-",
      "District": "-",
      "Province": "-"
    }
  }
},{
  "_id": {
    "$oid": "60acc503259febe16d36bb6f"
  },
  "type": "Feature",
  "geometry": {
    "type": "Point",
    "coordinates": [
      11.11215,
      33.50398
    ]
  },
  "properties": {
    "placename": "جرجيس",
    "hebrewname": "גרגיס",
    "englishname": "jrjys",
    "Description": "",
    "count": 1,
    "Relation": {
      "Type_Arabic": "-",
      "Type_English": "-",
      "Metropolitan": "-",
      "District": "-",
      "Province": "-"
    }
  }
},{
  "_id": {
    "$oid": "60acc503259febe16d36bb73"
  },
  "type": "Feature",
  "geometry": {
    "type": "Point",
    "coordinates": [
      33.23393174,
      35.06317464
    ]
  },
  "properties": {
    "placename": "قبرص",
    "hebrewname": "קברצ",
    "englishname": "qbrS",
    "Description": "",
    "count": 2,
    "Relation": {
      "Type_Arabic": "-",
      "Type_English": "-",
      "Metropolitan": "-",
      "District": "-",
      "Province": "-"
    }
  }
},{
  "_id": {
    "$oid": "60acc503259febe16d36bb7e"
  },
  "type": "Feature",
  "geometry": {
    "type": "Point",
    "coordinates": [
      48.37446,
      34.19088
    ]
  },
  "properties": {
    "placename": "نهاوند",
    "hebrewname": "נהאונד",
    "englishname": "nhaond",
    "Description": "",
    "count": 9,
    "Relation": {
      "Type_Arabic": "مدينة",
      "Type_English": "city",
      "Metropolitan": "قبلة",
      "District": "-",
      "Province": "-"
    }
  }
},{
  "_id": {
    "$oid": "60acc503259febe16d36bb7f"
  },
  "type": "Feature",
  "geometry": {
    "type": "Point",
    "coordinates": [
      44.90339746059138,
      38.45216033076796
    ]
  },
  "properties": {
    "placename": "هندوان",
    "hebrewname": "הנדואנ",
    "englishname": "hndoan",
    "Description": "",
    "count": 5,
    "Relation": {
      "Type_Arabic": "نهر",
      "Type_English": "river",
      "Metropolitan": "-",
      "District": "-",
      "Province": "-"
    }
  }
},{
  "_id": {
    "$oid": "60acc503259febe16d36bb85"
  },
  "type": "Feature",
  "geometry": {
    "type": "Point",
    "coordinates": [
      -5.97317,
      37.38283
    ]
  },
  "properties": {
    "placename": "إشبيلية",
    "hebrewname": "אישביליה",
    "englishname": "Ashbylyah",
    "Description": "",
    "count": 2,
    "Relation": {
      "Type_Arabic": "جبل",
      "Type_English": "mountain",
      "Metropolitan": "لبلة",
      "District": "دجلة",
      "Province": "-"
    }
  }
},{
  "_id": {
    "$oid": "60acc503259febe16d36bb92"
  },
  "type": "Feature",
  "geometry": {
    "type": "Point",
    "coordinates": [
      36.16356680185714,
      36.20853979299366
    ]
  },
  "properties": {
    "placename": "انطاكية",
    "hebrewname": "אנטאכיה",
    "englishname": "anTakyah",
    "Description": "",
    "count": 10,
    "Relation": {
      "Type_Arabic": "-",
      "Type_English": "-",
      "Metropolitan": "-",
      "District": "-",
      "Province": "-"
    }
  }
},{
  "_id": {
    "$oid": "60acc503259febe16d36bb96"
  },
  "type": "Feature",
  "geometry": {
    "type": "Point",
    "coordinates": [
      36.21806,
      34.00583
    ]
  },
  "properties": {
    "placename": "بعلبك",
    "hebrewname": "בעלבכ",
    "englishname": "bClbk",
    "Description": "",
    "count": 14,
    "Relation": {
      "Type_Arabic": "-",
      "Type_English": "-",
      "Metropolitan": "معروف",
      "District": "دمشق",
      "Province": "-"
    }
  }
},{
  "_id": {
    "$oid": "60acc503259febe16d36bb9f"
  },
  "type": "Feature",
  "geometry": {
    "type": "Point",
    "coordinates": [
      35.70032,
      32.77935
    ]
  },
  "properties": {
    "placename": "فيق",
    "hebrewname": "פיק",
    "englishname": "fyq",
    "Description": "",
    "count": 3,
    "Relation": {
      "Type_Arabic": "ما",
      "Type_English": "water",
      "Metropolitan": "فاق",
      "District": "-",
      "Province": "الشام"
    }
  }
},{
  "_id": {
    "$oid": "60acc503259febe16d36bbc8"
  },
  "type": "Feature",
  "geometry": {
    "type": "Point",
    "coordinates": [
      31.799187340436465,
      30.719643851225065
    ]
  },
  "properties": {
    "placename": "فاقوس",
    "hebrewname": "פאקוס",
    "englishname": "faqos",
    "Description": "",
    "count": 9,
    "Relation": {
      "Type_Arabic": "مدينة",
      "Type_English": "city",
      "Metropolitan": "-",
      "District": "-",
      "Province": "-"
    }
  }
},{
  "_id": {
    "$oid": "60acc503259febe16d36bbe4"
  },
  "type": "Feature",
  "geometry": {
    "type": "Point",
    "coordinates": [
      58.18911,
      23.67027
    ]
  },
  "properties": {
    "placename": "السيب",
    "hebrewname": "אלסיב",
    "englishname": "alsyb",
    "Description": "",
    "count": 3,
    "Relation": {
      "Type_Arabic": "كورة",
      "Type_English": "town",
      "Metropolitan": "سورا",
      "District": "السواد",
      "Province": "الكوفة"
    }
  }
},{
  "_id": {
    "$oid": "60acc503259febe16d36bbf1"
  },
  "type": "Feature",
  "geometry": {
    "type": "Point",
    "coordinates": [
      52.16600365975474,
      35.5518324699786
    ]
  },
  "properties": {
    "placename": "كيلان",
    "hebrewname": "כילאנ",
    "englishname": "kylan",
    "Description": "",
    "count": 1,
    "Relation": {
      "Type_Arabic": "-",
      "Type_English": "-",
      "Metropolitan": "-",
      "District": "-",
      "Province": "-"
    }
  }
},{
  "_id": {
    "$oid": "60acc503259febe16d36bbf3"
  },
  "type": "Feature",
  "geometry": {
    "type": "Point",
    "coordinates": [
      37.003614,
      35.989704
    ]
  },
  "properties": {
    "placename": "قنسرين",
    "hebrewname": "קנסרינ",
    "englishname": "qnsryn",
    "Description": "",
    "count": 23,
    "Relation": {
      "Type_Arabic": "كورة",
      "Type_English": "town",
      "Metropolitan": "رشيد",
      "District": "مكة",
      "Province": "اليمن"
    }
  }
},{
  "_id": {
    "$oid": "60acc503259febe16d36bc08"
  },
  "type": "Feature",
  "geometry": {
    "type": "Point",
    "coordinates": [
      -5.00028,
      34.03313
    ]
  },
  "properties": {
    "placename": "فاس",
    "hebrewname": "פאס",
    "englishname": "fas",
    "Description": "",
    "count": 16,
    "Relation": {
      "Type_Arabic": "مدينة",
      "Type_English": "city",
      "Metropolitan": "فاس",
      "District": "الزاب",
      "Province": "المغرب"
    }
  }
},{
  "_id": {
    "$oid": "60acc503259febe16d36bc18"
  },
  "type": "Feature",
  "geometry": {
    "type": "Point",
    "coordinates": [
      51.59555190720447,
      31.062050749421523
    ]
  },
  "properties": {
    "placename": "كمه",
    "hebrewname": "כמה",
    "englishname": "kmh",
    "Description": "",
    "count": 1,
    "Relation": {
      "Type_Arabic": "-",
      "Type_English": "-",
      "Metropolitan": "-",
      "District": "-",
      "Province": "-"
    }
  }
},{
  "_id": {
    "$oid": "60acc503259febe16d36bc2e"
  },
  "type": "Feature",
  "geometry": {
    "type": "Point",
    "coordinates": [
      34.75224,
      32.05043
    ]
  },
  "properties": {
    "placename": "يافا",
    "hebrewname": "יאפא",
    "englishname": "yafa",
    "Description": "",
    "count": 1,
    "Relation": {
      "Type_Arabic": "مدينة",
      "Type_English": "city",
      "Metropolitan": "-",
      "District": "فلسطين",
      "Province": "-"
    }
  }
},{
  "_id": {
    "$oid": "60acc503259febe16d36bc3b"
  },
  "type": "Feature",
  "geometry": {
    "type": "Point",
    "coordinates": [
      20.16064404910557,
      30.23059097963201
    ]
  },
  "properties": {
    "placename": "اجدابية",
    "hebrewname": "אגדאביה",
    "englishname": "ajdabyah",
    "Description": "",
    "count": 1,
    "Relation": {
      "Type_Arabic": "-",
      "Type_English": "-",
      "Metropolitan": "-",
      "District": "-",
      "Province": "-"
    }
  }
},{
  "_id": {
    "$oid": "60acc503259febe16d36bc49"
  },
  "type": "Feature",
  "geometry": {
    "type": "Point",
    "coordinates": [
      39.29227996656835,
      25.686872202443837
    ]
  },
  "properties": {
    "placename": "خيبر",
    "hebrewname": "חיבר",
    "englishname": "xybr",
    "Description": "",
    "count": 3,
    "Relation": {
      "Type_Arabic": "ناحية",
      "Type_English": "district",
      "Metropolitan": "الواقدي",
      "District": "خيبر",
      "Province": "-"
    }
  }
},{
  "_id": {
    "$oid": "60acc503259febe16d36bc4c"
  },
  "type": "Feature",
  "geometry": {
    "type": "Point",
    "coordinates": [
      40.3166,
      35.23349
    ]
  },
  "properties": {
    "placename": "حسن",
    "hebrewname": "חסנ",
    "englishname": "Hsn",
    "Description": "",
    "count": 80,
    "Relation": {
      "Type_Arabic": "-",
      "Type_English": "-",
      "Metropolitan": "-",
      "District": "-",
      "Province": "-"
    }
  }
},{
  "_id": {
    "$oid": "60acc503259febe16d36bc5f"
  },
  "type": "Feature",
  "geometry": {
    "type": "Point",
    "coordinates": [
      37.95465933,
      26.79994733
    ]
  },