[{"_id":"611daa7d5f9d5cbbd4189d95","type":"Feature","geometry":{"type":"Point","coordinates":[50.8764,34.6401]},"properties":{"placename":"قم","hebrewname":"קמ","englishname":"qm","count":127,"type":"PLACE"}},{"_id":"611daa7d5f9d5cbbd4189d96","type":"Feature","geometry":{"type":"Point","coordinates":[44.73548651,35.59381725]},"properties":{"placename":"شهرزور","hebrewname":"שהרזור","englishname":"shhrzor","count":2,"type":"PLACE"}},{"_id":"611daa7d5f9d5cbbd4189d97","type":"Feature","geometry":{"type":"Point","coordinates":[29.9555323,15.99164062]},"properties":{"placename":"السودان","hebrewname":"אלסודאנ","englishname":"alsodan","count":18,"type":"PLACE"}},{"_id":"611daa7d5f9d5cbbd4189d98","type":"Feature","geometry":{"type":"Point","coordinates":[62.18030342,37.66844146]},"properties":{"placename":"مرو","hebrewname":"מרו","englishname":"mro","count":150,"type":"PLACE"}},{"_id":"611daa7d5f9d5cbbd4189d99","type":"Feature","geometry":{"type":"Point","coordinates":[38.95335674,23.42800763]},"properties":{"placename":"الجابية","hebrewname":"אלגאביה","englishname":"aljabyah","count":3,"type":"PLACE"}},{"_id":"611daa7d5f9d5cbbd4189d9a","type":"Feature","geometry":{"type":"Point","coordinates":[52.53113,29.61031]},"properties":{"placename":"شيراز","hebrewname":"שיראז","englishname":"shyraz","count":15,"type":"PLACE"}},{"_id":"611daa7d5f9d5cbbd4189d9b","type":"Feature","geometry":{"type":"Point","coordinates":[41.00817,38.13708]},"properties":{"placename":"ميافارقين","hebrewname":"מיאפארקינ","englishname":"myafarqyn","count":5,"type":"PLACE"}},{"_id":"611daa7d5f9d5cbbd4189d9c","type":"Feature","geometry":{"type":"Point","coordinates":[46.87292,14.33011]},"properties":{"placename":"الصعيد","hebrewname":"אלצעיד","englishname":"alSayd","count":10,"type":"PLACE"}},{"_id":"611daa7d5f9d5cbbd4189d9d","type":"Feature","geometry":{"type":"Point","coordinates":[84.49139452,40.42216204]},"properties":{"placename":"تركستان","hebrewname":"תרכסתאנ","englishname":"trkstan","count":6,"type":"PLACE"}},{"_id":"611daa7d5f9d5cbbd4189d9e","type":"Feature","geometry":{"type":"Point","coordinates":[41.15151351,34.38211415]},"properties":{"placename":"الفرات","hebrewname":"אלפראת","englishname":"alfrat","count":35,"type":"PLACE"}},{"_id":"611daa7d5f9d5cbbd4189d9f","type":"Feature","geometry":{"type":"Point","coordinates":[59.96459382,28.96428989]},"properties":{"placename":"سجستان","hebrewname":"סגסתאנ","englishname":"sjstan","count":11,"type":"PLACE"}},{"_id":"611daa7d5f9d5cbbd4189da0","type":"Feature","geometry":{"type":"Point","coordinates":[9.184162,36.726581]},"properties":{"placename":"باجة","hebrewname":"באגה","englishname":"bajah","count":4,"type":"PLACE"}},{"_id":"611daa7d5f9d5cbbd4189da1","type":"Feature","geometry":{"type":"Point","coordinates":[17.51027918,30.07883031]},"properties":{"placename":"سرت","hebrewname":"סרת","englishname":"srt","count":23,"type":"PLACE"}},{"_id":"611daa7d5f9d5cbbd4189da2","type":"Feature","geometry":{"type":"Point","coordinates":[14.43218782,27.02419266]},"properties":{"placename":"فزان","hebrewname":"פזאנ","englishname":"fzan","count":1,"type":"PLACE"}},{"_id":"611daa7d5f9d5cbbd4189da3","type":"Feature","geometry":{"type":"Point","coordinates":[29.91367754,31.20876695]},"properties":{"placename":"الإسكندرية","hebrewname":"אלאיסכנדריה","englishname":"alAskndryah","count":17,"type":"PLACE"}},{"_id":"611daa7d5f9d5cbbd4189da4","type":"Feature","geometry":{"type":"Point","coordinates":[35.22630122,31.76402941]},"properties":{"placename":"جيحون","hebrewname":"גיחונ","englishname":"jyHon","count":14,"type":"PLACE"}},{"_id":"611daa7d5f9d5cbbd4189da5","type":"Feature","geometry":{"type":"Point","coordinates":[1.316543346,35.37005356]},"properties":{"placename":"تاهرت","hebrewname":"תאהרת","englishname":"tahrt","count":3,"type":"PLACE"}},{"_id":"611daa7d5f9d5cbbd4189da6","type":"Feature","geometry":{"type":"Point","coordinates":[45.26667,13.93333]},"properties":{"placename":"بكر","hebrewname":"בכר","englishname":"bkr","count":84,"type":"PLACE"}},{"_id":"611daa7d5f9d5cbbd4189da7","type":"Feature","geometry":{"type":"Point","coordinates":[46.38811,14.20567]},"properties":{"placename":"الرباط","hebrewname":"אלרבאט","englishname":"alrbaT","count":14,"type":"PLACE"}},{"_id":"611daa7d5f9d5cbbd4189da8","type":"Feature","geometry":{"type":"Point","coordinates":[32.81637313,26.00223467]},"properties":{"placename":"قفط","hebrewname":"קפט","englishname":"qfT","count":1,"type":"PLACE"}},{"_id":"611daa7d5f9d5cbbd4189da9","type":"Feature","geometry":{"type":"Point","coordinates":[57.66858819,23.75511186]},"properties":{"placename":"المراغة","hebrewname":"אלמראעה","englishname":"almragah","count":5,"type":"PLACE"}},{"_id":"611daa7d5f9d5cbbd4189daa","type":"Feature","geometry":{"type":"Point","coordinates":[32.03082017,31.17898484]},"properties":{"placename":"تنيس","hebrewname":"תניס","englishname":"tnys","count":13,"type":"PLACE"}},{"_id":"611daa7d5f9d5cbbd4189dab","type":"Feature","geometry":{"type":"Point","coordinates":[30.55385442,29.33135345]},"properties":{"placename":"الفيوم","hebrewname":"אלפיומ","englishname":"alfyom","count":6,"type":"PLACE"}},{"_id":"611daa7d5f9d5cbbd4189dac","type":"Feature","geometry":{"type":"Point","coordinates":[59.52889,22.56667]},"properties":{"placename":"صور","hebrewname":"צור","englishname":"Sor","count":284,"type":"PLACE"}},{"_id":"611daa7d5f9d5cbbd4189dad","type":"Feature","geometry":{"type":"Point","coordinates":[-2.56861,36.95692]},"properties":{"placename":"المرية","hebrewname":"אלמריה","englishname":"almryah","count":1,"type":"PLACE"}},{"_id":"611daa7d5f9d5cbbd4189dae","type":"Feature","geometry":{"type":"Point","coordinates":[80.49968856,6.810495022]},"properties":{"placename":"سرنديب","hebrewname":"סרנדיב","englishname":"srndyb","count":16,"type":"PLACE"}},{"_id":"611daa7d5f9d5cbbd4189daf","type":"Feature","geometry":{"type":"Point","coordinates":[-3.60667,37.18817]},"properties":{"placename":"غرناطة","hebrewname":"ערנאטה","englishname":"grnaTah","count":3,"type":"PLACE"}},{"_id":"611daa7d5f9d5cbbd4189db0","type":"Feature","geometry":{"type":"Point","coordinates":[13.41659145,32.67120674]},"properties":{"placename":"طرابلس","hebrewname":"טראבלס","englishname":"Trabls","count":3,"type":"PLACE"}},{"_id":"611daa7d5f9d5cbbd4189db1","type":"Feature","geometry":{"type":"Point","coordinates":[35.35611144,30.71029774]},"properties":{"placename":"الشراة","hebrewname":"אלשראה","englishname":"alshraah","count":2,"type":"PLACE"}},{"_id":"611daa7d5f9d5cbbd4189db2","type":"Feature","geometry":{"type":"Point","coordinates":[48.37446,34.19088]},"properties":{"placename":"نهاوند","hebrewname":"נהאונד","englishname":"nhaond","count":13,"type":"PLACE"}},{"_id":"611daa7d5f9d5cbbd4189db3","type":"Feature","geometry":{"type":"Point","coordinates":[54.65440101,35.47012464]},"properties":{"placename":"سمنان","hebrewname":"סמנאנ","englishname":"smnan","count":2,"type":"PLACE"}},{"_id":"611daa7d5f9d5cbbd4189db4","type":"Feature","geometry":{"type":"Point","coordinates":[80.0538,6.2355]},"properties":{"placename":"سيلان","hebrewname":"סילאנ","englishname":"sylan","count":1,"type":"PLACE"}},{"_id":"611daa7d5f9d5cbbd4189db5","type":"Feature","geometry":{"type":"Point","coordinates":[67.82734,34.82156]},"properties":{"placename":"باميان","hebrewname":"באמיאנ","englishname":"bamyan","count":6,"type":"PLACE"}},{"_id":"611daa7d5f9d5cbbd4189db6","type":"Feature","geometry":{"type":"Point","coordinates":[44.39716853,33.32906174]},"properties":{"placename":"دجلة","hebrewname":"דגלה","englishname":"djlah","count":56,"type":"PLACE"}},{"_id":"611daa7d5f9d5cbbd4189db7","type":"Feature","geometry":{"type":"Point","coordinates":[11.11215,33.50398]},"properties":{"placename":"جرجيس","hebrewname":"גרגיס","englishname":"jrjys","count":2,"type":"PLACE"}},{"_id":"611daa7d5f9d5cbbd4189db8","type":"Feature","geometry":{"type":"Point","coordinates":[48.3043,30.3392]},"properties":{"placename":"عبادان","hebrewname":"עבאדאנ","englishname":"abadan","count":6,"type":"PLACE"}},{"_id":"611daa7d5f9d5cbbd4189db9","type":"Feature","geometry":{"type":"Point","coordinates":[35.82998878,33.27932977]},"properties":{"placename":"حوران","hebrewname":"חוראנ","englishname":"Horan","count":2,"type":"PLACE"}},{"_id":"611daa7d5f9d5cbbd4189dba","type":"Feature","geometry":{"type":"Point","coordinates":[3.049726,36.766025]},"properties":{"placename":"الجزائر","hebrewname":"אלגזאאר","englishname":"aljzaar","count":4,"type":"PLACE"}},{"_id":"611daa7d5f9d5cbbd4189dbb","type":"Feature","geometry":{"type":"Point","coordinates":[68.42096,33.55391]},"properties":{"placename":"غزنة","hebrewname":"עזנה","englishname":"gznah","count":8,"type":"PLACE"}},{"_id":"611daa7d5f9d5cbbd4189dbc","type":"Feature","geometry":{"type":"Point","coordinates":[35.72590701,34.13261269]},"properties":{"placename":"لبنان","hebrewname":"לבנאנ","englishname":"lbnan","count":4,"type":"PLACE"}},{"_id":"611daa7d5f9d5cbbd4189dbd","type":"Feature","geometry":{"type":"Point","coordinates":[31.56223,30.42039]},"properties":{"placename":"بلبيس","hebrewname":"בלביס","englishname":"blbys","count":1,"type":"PLACE"}},{"_id":"611daa7d5f9d5cbbd4189dbe","type":"Feature","geometry":{"type":"Point","coordinates":[49.91667,17.3]},"properties":{"placename":"ثمود","hebrewname":"תמוד","englishname":"vmod","count":6,"type":"PLACE"}},{"_id":"611daa7d5f9d5cbbd4189dbf","type":"Feature","geometry":{"type":"Point","coordinates":[58.79575,36.21329]},"properties":{"placename":"نيسابور","hebrewname":"ניסאבור","englishname":"nysabor","count":37,"type":"PLACE"}},{"_id":"611daa7d5f9d5cbbd4189dc0","type":"Feature","geometry":{"type":"Point","coordinates":[37.24066,34.22956]},"properties":{"placename":"القريتين","hebrewname":"אלקריתינ","englishname":"alqrytyn","count":4,"type":"PLACE"}},{"_id":"611daa7d5f9d5cbbd4189dc1","type":"Feature","geometry":{"type":"Point","coordinates":[35.77104272,31.12832137]},"properties":{"placename":"الكرك","hebrewname":"אלכרכ","englishname":"alkrk","count":8,"type":"PLACE"}},{"_id":"611daa7d5f9d5cbbd4189dc2","type":"Feature","geometry":{"type":"Point","coordinates":[35.18113312,32.57967588]},"properties":{"placename":"اللجون","hebrewname":"אללגונ","englishname":"alljon","count":1,"type":"PLACE"}},{"_id":"611daa7d5f9d5cbbd4189dc3","type":"Feature","geometry":{"type":"Point","coordinates":[39.21693835,21.3496021]},"properties":{"placename":"السروات","hebrewname":"אלסרואת","englishname":"alsroat","count":1,"type":"PLACE"}},{"_id":"611daa7d5f9d5cbbd4189dc4","type":"Feature","geometry":{"type":"Point","coordinates":[-5.5539518,7.626106171]},"properties":{"placename":"العاج","hebrewname":"אלעאג","englishname":"alaaj","count":9,"type":"PLACE"}},{"_id":"611daa7d5f9d5cbbd4189dc5","type":"Feature","geometry":{"type":"Point","coordinates":[62.46320569,41.60526788]},"properties":{"placename":"خوارزم","hebrewname":"חוארזמ","englishname":"xoarzm","count":70,"type":"PLACE"}},{"_id":"611daa7d5f9d5cbbd4189dc6","type":"Feature","geometry":{"type":"Point","coordinates":[43.97497,26.32599]},"properties":{"placename":"بريدة","hebrewname":"ברידה","englishname":"brydah","count":3,"type":"PLACE"}},{"_id":"611daa7d5f9d5cbbd4189dc7","type":"Feature","geometry":{"type":"Point","coordinates":[50.0041,36.26877]},"properties":{"placename":"قزوين","hebrewname":"קזוינ","englishname":"qzoyn","count":74,"type":"PLACE"}},{"_id":"611daa7d5f9d5cbbd4189dc8","type":"Feature","geometry":{"type":"Point","coordinates":[53.93126012,32.79138456]},"properties":{"placename":"سياه","hebrewname":"סיאה","englishname":"syah","count":3,"type":"PLACE"}},{"_id":"611daa7d5f9d5cbbd4189dc9","type":"Feature","geometry":{"type":"Point","coordinates":[35.94871,35.18188]},"properties":{"placename":"بانياس","hebrewname":"באניאס","englishname":"banyas","count":1,"type":"PLACE"}},{"_id":"611daa7d5f9d5cbbd4189dca","type":"Feature","geometry":{"type":"Point","coordinates":[58.87033297,35.48693989]},"properties":{"placename":"خراسان","hebrewname":"חראסאנ","englishname":"xrasan","count":85,"type":"PLACE"}},{"_id":"611daa7d5f9d5cbbd4189dcb","type":"Feature","geometry":{"type":"Point","coordinates":[39.25224249,8.426565179]},"properties":{"placename":"الحبشة","hebrewname":"אלחבשה","englishname":"alHbshah","count":17,"type":"PLACE"}},{"_id":"611daa7d5f9d5cbbd4189dcc","type":"Feature","geometry":{"type":"Point","coordinates":[33.93117,13.1483]},"properties":{"placename":"سنجة","hebrewname":"סנגה","englishname":"snjah","count":1,"type":"PLACE"}},{"_id":"611daa7d5f9d5cbbd4189dcd","type":"Feature","geometry":{"type":"Point","coordinates":[-7.564522827,33.5410057]},"properties":{"placename":"سبتة","hebrewname":"סבתה","englishname":"sbtah","count":4,"type":"PLACE"}},{"_id":"611daa7d5f9d5cbbd4189dce","type":"Feature","geometry":{"type":"Point","coordinates":[36.15722,36.20655]},"properties":{"placename":"أنطاكية","hebrewname":"אנטאכיה","englishname":"AnTakyah","count":5,"type":"PLACE"}},{"_id":"611daa7d5f9d5cbbd4189dcf","type":"Feature","geometry":{"type":"Point","coordinates":[31.1669,30.97063]},"properties":{"placename":"المحلة","hebrewname":"אלמחלה","englishname":"almHlah","count":1,"type":"PLACE"}},{"_id":"611daa7d5f9d5cbbd4189dd0","type":"Feature","geometry":{"type":"Point","coordinates":[36.67693,35.6483]},"properties":{"placename":"معرة","hebrewname":"מערה","englishname":"marah","count":2,"type":"PLACE"}},{"_id":"611daa7d5f9d5cbbd4189dd1","type":"Feature","geometry":{"type":"Point","coordinates":[38.29824515,34.33814673]},"properties":{"placename":"حمص","hebrewname":"חמצ","englishname":"HmS","count":14,"type":"PLACE"}},{"_id":"611daa7d5f9d5cbbd4189dd2","type":"Feature","geometry":{"type":"Point","coordinates":[44.57038666,32.21929118]},"properties":{"placename":"الحيرة","hebrewname":"אלחירה","englishname":"alHyrah","count":9,"type":"PLACE"}},{"_id":"611daa7d5f9d5cbbd4189dd3","type":"Feature","geometry":{"type":"Point","coordinates":[-0.373193664,39.47663675]},"properties":{"placename":"بلنسية","hebrewname":"בלנסיה","englishname":"blnsyah","count":4,"type":"PLACE"}},{"_id":"611daa7d5f9d5cbbd4189dd4","type":"Feature","geometry":{"type":"Point","coordinates":[32.61734363,38.04841359]},"properties":{"placename":"قونية","hebrewname":"קוניה","englishname":"qonyah","count":1,"type":"PLACE"}},{"_id":"611daa7d5f9d5cbbd4189dd5","type":"Feature","geometry":{"type":"Point","coordinates":[52.05675426,35.69918256]},"properties":{"placename":"دماوند","hebrewname":"דמאונד","englishname":"dmaond","count":5,"type":"PLACE"}},{"_id":"611daa7d5f9d5cbbd4189dd6","type":"Feature","geometry":{"type":"Point","coordinates":[-4.7791517,37.8847267]},"properties":{"placename":"قرطبة","hebrewname":"קרטבה","englishname":"qrTbah","count":7,"type":"PLACE"}},{"_id":"611daa7d5f9d5cbbd4189dd7","type":"Feature","geometry":{"type":"Point","coordinates":[34.41208,28.48991761]},"properties":{"placename":"مدين","hebrewname":"מדינ","englishname":"mdyn","count":681,"type":"PLACE"}},{"_id":"611daa7d5f9d5cbbd4189dd8","type":"Feature","geometry":{"type":"Point","coordinates":[41.17579313,37.15429948]},"properties":{"placename":"نصيبين","hebrewname":"נציבינ","englishname":"nSybyn","count":21,"type":"PLACE"}},{"_id":"611daa7d5f9d5cbbd4189dd9","type":"Feature","geometry":{"type":"Point","coordinates":[57.43770604,23.83929644]},"properties":{"placename":"السويق","hebrewname":"אלסויק","englishname":"alsoyq","count":1,"type":"PLACE"}},{"_id":"611daa7d5f9d5cbbd4189dda","type":"Feature","geometry":{"type":"Point","coordinates":[69.17233,34.52813]},"properties":{"placename":"كابل","hebrewname":"כאבל","englishname":"kabl","count":6,"type":"PLACE"}},{"_id":"611daa7d5f9d5cbbd4189ddb","type":"Feature","geometry":{"type":"Point","coordinates":[35.25444,32.22111]},"properties":{"placename":"نابلس","hebrewname":"נאבלס","englishname":"nabls","count":7,"type":"PLACE"}},{"_id":"611daa7d5f9d5cbbd4189ddc","type":"Feature","geometry":{"type":"Point","coordinates":[35.0938,31.52935]},"properties":{"placename":"الخليل","hebrewname":"אלחליל","englishname":"alxlyl","count":27,"type":"PLACE"}},{"_id":"611daa7d5f9d5cbbd4189ddd","type":"Feature","geometry":{"type":"Point","coordinates":[35.21633,31.76904]},"properties":{"placename":"المقدس","hebrewname":"אלמקדס","englishname":"almqds","count":27,"type":"PLACE"}},{"_id":"611daa7d5f9d5cbbd4189dde","type":"Feature","geometry":{"type":"Point","coordinates":[61.1577,36.5449]},"properties":{"placename":"سرخس","hebrewname":"סרחס","englishname":"srxs","count":7,"type":"PLACE"}},{"_id":"611daa7d5f9d5cbbd4189ddf","type":"Feature","geometry":{"type":"Point","coordinates":[-7.99994,31.63416]},"properties":{"placename":"مراكش","hebrewname":"מראכש","englishname":"mraksh","count":5,"type":"PLACE"}},{"_id":"611daa7d5f9d5cbbd4189de0","type":"Feature","geometry":{"type":"Point","coordinates":[45.54937571,23.07572958]},"properties":{"placename":"الرياض","hebrewname":"אלריאד","englishname":"alryaD","count":10,"type":"PLACE"}},{"_id":"611daa7d5f9d5cbbd4189de1","type":"Feature","geometry":{"type":"Point","coordinates":[45.71882426,32.66448284]},"properties":{"placename":"واسط","hebrewname":"ואסט","englishname":"oasT","count":28,"type":"PLACE"}},{"_id":"611daa7d5f9d5cbbd4189de2","type":"Feature","geometry":{"type":"Point","coordinates":[36.21806,34.00583]},"properties":{"placename":"بعلبك","hebrewname":"בעלבכ","englishname":"balbk","count":2,"type":"PLACE"}},{"_id":"611daa7d5f9d5cbbd4189de3","type":"Feature","geometry":{"type":"Point","coordinates":[48.54832144,36.67431341]},"properties":{"placename":"طبرستان","hebrewname":"טברסתאנ","englishname":"Tbrstan","count":24,"type":"PLACE"}},{"_id":"611daa7d5f9d5cbbd4189de4","type":"Feature","geometry":{"type":"Point","coordinates":[37.29440343,27.38262207]},"properties":{"placename":"تبوك","hebrewname":"תבוכ","englishname":"tbok","count":4,"type":"PLACE"}},{"_id":"611daa7d5f9d5cbbd4189de5","type":"Feature","geometry":{"type":"Point","coordinates":[47.77465942,30.54611079]},"properties":{"placename":"الأبلة","hebrewname":"אלאבלה","englishname":"alAblah","count":4,"type":"PLACE"}},{"_id":"611daa7d5f9d5cbbd4189de6","type":"Feature","geometry":{"type":"Point","coordinates":[31.11534339,27.23214033]},"properties":{"placename":"أسيوط","hebrewname":"אסיוט","englishname":"AsyoT","count":1,"type":"PLACE"}},{"_id":"611daa7d5f9d5cbbd4189de7","type":"Feature","geometry":{"type":"Point","coordinates":[36.3006518,33.5123279]},"properties":{"placename":"الغوطة","hebrewname":"אלעוטה","englishname":"algoTah","count":4,"type":"PLACE"}},{"_id":"611daa7d5f9d5cbbd4189de8","type":"Feature","geometry":{"type":"Point","coordinates":[44.40469386,15.32935876]},"properties":{"placename":"صنعاء","hebrewname":"צנעאא","englishname":"Snaaa","count":21,"type":"PLACE"}},{"_id":"611daa7d5f9d5cbbd4189de9","type":"Feature","geometry":{"type":"Point","coordinates":[48.28987,42.06779]},"properties":{"placename":"دربند","hebrewname":"דרבנד","englishname":"drbnd","count":8,"type":"PLACE"}},{"_id":"611daa7d5f9d5cbbd4189dea","type":"Feature","geometry":{"type":"Point","coordinates":[46.16931426,33.11872597]},"properties":{"placename":"مهران","hebrewname":"מהראנ","englishname":"mhran","count":6,"type":"PLACE"}},{"_id":"611daa7d5f9d5cbbd4189deb","type":"Feature","geometry":{"type":"Point","coordinates":[14.483657,31.73447107]},"properties":{"placename":"إفريقية","hebrewname":"איפריקיה","englishname":"Afryqyah","count":6,"type":"PLACE"}},{"_id":"611daa7d5f9d5cbbd4189dec","type":"Feature","geometry":{"type":"Point","coordinates":[38.31667,38.35018]},"properties":{"placename":"ملطية","hebrewname":"מלטיה","englishname":"mlTyah","count":4,"type":"PLACE"}},{"_id":"611daa7d5f9d5cbbd4189ded","type":"Feature","geometry":{"type":"Point","coordinates":[49.26443874,40.71880645]},"properties":{"placename":"الخزر","hebrewname":"אלחזר","englishname":"alxzr","count":29,"type":"PLACE"}},{"_id":"611daa7d5f9d5cbbd4189dee","type":"Feature","geometry":{"type":"Point","coordinates":[43.34824602,38.50443161]},"properties":{"placename":"بوان","hebrewname":"בואנ","englishname":"boan","count":10,"type":"PLACE"}},{"_id":"611daa7d5f9d5cbbd4189def","type":"Feature","geometry":{"type":"Point","coordinates":[32.89959106,24.08982625]},"properties":{"placename":"اسوان","hebrewname":"אסואנ","englishname":"asoan","count":1,"type":"PLACE"}},{"_id":"611daa7d5f9d5cbbd4189df0","type":"Feature","geometry":{"type":"Point","coordinates":[44.53483654,40.24993891]},"properties":{"placename":"أرمينية","hebrewname":"ארמיניה","englishname":"Armynyah","count":16,"type":"PLACE"}},{"_id":"611daa7d5f9d5cbbd4189df1","type":"Feature","geometry":{"type":"Point","coordinates":[35.66813649,31.97563763]},"properties":{"placename":"البلقاء","hebrewname":"אלבלקאא","englishname":"alblqaa","count":1,"type":"PLACE"}},{"_id":"611daa7d5f9d5cbbd4189df2","type":"Feature","geometry":{"type":"Point","coordinates":[43.78015956,33.02990519]},"properties":{"placename":"العراق","hebrewname":"אלעראק","englishname":"alaraq","count":48,"type":"PLACE"}},{"_id":"611daa7d5f9d5cbbd4189df3","type":"Feature","geometry":{"type":"Point","coordinates":[35.53124,32.79221]},"properties":{"placename":"طبرية","hebrewname":"טבריה","englishname":"Tbryah","count":19,"type":"PLACE"}},{"_id":"611daa7d5f9d5cbbd4189df4","type":"Feature","geometry":{"type":"Point","coordinates":[-5.45051,36.13326]},"properties":{"placename":"الجزيرة","hebrewname":"אלגזירה","englishname":"aljzyrah","count":47,"type":"PLACE"}},{"_id":"611daa7d5f9d5cbbd4189df5","type":"Feature","geometry":{"type":"Point","coordinates":[40.41583,21.27028]},"properties":{"placename":"الطائف","hebrewname":"אלטאאפ","englishname":"alTaaf","count":16,"type":"PLACE"}},{"_id":"611daa7d5f9d5cbbd4189df6","type":"Feature","geometry":{"type":"Point","coordinates":[-9.13891962574204,38.726465978972776]},"properties":{"placename":"لشبونة","hebrewname":"לשבונה","englishname":"lshbonah","count":1,"type":"PLACE"}},{"_id":"611daa7d5f9d5cbbd4189df7","type":"Feature","geometry":{"type":"Point","coordinates":[31.29431339,39.02023513]},"properties":{"placename":"عمورية","hebrewname":"עמוריה","englishname":"amoryah","count":2,"type":"PLACE"}},{"_id":"611daa7d5f9d5cbbd4189df8","type":"Feature","geometry":{"type":"Point","coordinates":[43.78599,33.34913]},"properties":{"placename":"الفلوجة","hebrewname":"אלפלוגה","englishname":"alflojah","count":1,"type":"PLACE"}},{"_id":"611daa7d5f9d5cbbd4189df9","type":"Feature","geometry":{"type":"Point","coordinates":[36.38367168,32.88674014]},"properties":{"placename":"حران","hebrewname":"חראנ","englishname":"Hran","count":5,"type":"PLACE"}},{"_id":"611daa7d5f9d5cbbd4189dfa","type":"Feature","geometry":{"type":"Point","coordinates":[39.86850782,21.38929189]},"properties":{"placename":"مكة","hebrewname":"מכה","englishname":"mkah","count":103,"type":"PLACE"}},{"_id":"611daa7d5f9d5cbbd4189dfb","type":"Feature","geometry":{"type":"Point","coordinates":[39.19797,21.54238]},"properties":{"placename":"جدة","hebrewname":"גדה","englishname":"jdah","count":8,"type":"PLACE"}},{"_id":"611daa7d5f9d5cbbd4189dfc","type":"Feature","geometry":{"type":"Point","coordinates":[39.1843,51.67204]},"properties":{"placename":"الروس","hebrewname":"אלרוס","englishname":"alros","count":2,"type":"PLACE"}},{"_id":"611daa7d5f9d5cbbd4189dfd","type":"Feature","geometry":{"type":"Point","coordinates":[47.53113714,40.28705839]},"properties":{"placename":"آذربيجان","hebrewname":"אדרביגאנ","englishname":"aaVrbyjan","count":26,"type":"PLACE"}},{"_id":"611daa7d5f9d5cbbd4189dfe","type":"Feature","geometry":{"type":"Point","coordinates":[37.95495,36.52815]},"properties":{"placename":"منبج","hebrewname":"מנבג","englishname":"mnbj","count":2,"type":"PLACE"}},{"_id":"611daa7d5f9d5cbbd4189dff","type":"Feature","geometry":{"type":"Point","coordinates":[35.63199,32.90871]},"properties":{"placename":"البطيحة","hebrewname":"אלבטיחה","englishname":"albTyHah","count":3,"type":"PLACE"}},{"_id":"611daa7d5f9d5cbbd4189e00","type":"Feature","geometry":{"type":"Point","coordinates":[40.74357,37.31309]},"properties":{"placename":"ماردين","hebrewname":"מארדינ","englishname":"mardyn","count":2,"type":"PLACE"}},{"_id":"611daa7d5f9d5cbbd4189e01","type":"Feature","geometry":{"type":"Point","coordinates":[47.04478712,31.88851957]},"properties":{"placename":"ميسان","hebrewname":"מיסאנ","englishname":"mysan","count":5,"type":"PLACE"}},{"_id":"611daa7d5f9d5cbbd4189e02","type":"Feature","geometry":{"type":"Point","coordinates":[38.74042356,29.67816806]},"properties":{"placename":"الجوف","hebrewname":"אלגופ","englishname":"aljof","count":1,"type":"PLACE"}},{"_id":"611daa7d5f9d5cbbd4189e03","type":"Feature","geometry":{"type":"Point","coordinates":[21.94788317,32.5235541]},"properties":{"placename":"النوبة","hebrewname":"אלנובה","englishname":"alnobah","count":11,"type":"PLACE"}},{"_id":"611daa7d5f9d5cbbd4189e04","type":"Feature","geometry":{"type":"Point","coordinates":[44.78699,14.27179]},"properties":{"placename":"العقبة","hebrewname":"אלעקבה","englishname":"alaqbah","count":4,"type":"PLACE"}},{"_id":"611daa7d5f9d5cbbd4189e05","type":"Feature","geometry":{"type":"Point","coordinates":[31.18579119,27.17939944]},"properties":{"placename":"اسيوط","hebrewname":"אסיוט","englishname":"asyoT","count":1,"type":"PLACE"}},{"_id":"611daa7d5f9d5cbbd4189e06","type":"Feature","geometry":{"type":"Point","coordinates":[31.30084,29.84144]},"properties":{"placename":"حلوان","hebrewname":"חלואנ","englishname":"Hloan","count":9,"type":"PLACE"}},{"_id":"611daa7d5f9d5cbbd4189e07","type":"Feature","geometry":{"type":"Point","coordinates":[35.24483407,31.94558164]},"properties":{"placename":"الضفة","hebrewname":"אלדפה","englishname":"alDfah","count":1,"type":"PLACE"}},{"_id":"611daa7d5f9d5cbbd4189e08","type":"Feature","geometry":{"type":"Point","coordinates":[39.29227997,25.6868722]},"properties":{"placename":"خيبر","hebrewname":"חיבר","englishname":"xybr","count":12,"type":"PLACE"}},{"_id":"611daa7d5f9d5cbbd4189e09","type":"Feature","geometry":{"type":"Point","coordinates":[32.72671,26.16418]},"properties":{"placename":"قنا","hebrewname":"קנא","englishname":"qna","count":54,"type":"PLACE"}},{"_id":"611daa7d5f9d5cbbd4189e0a","type":"Feature","geometry":{"type":"Point","coordinates":[79.61702628,23.0103574]},"properties":{"placename":"الهند","hebrewname":"אלהנד","englishname":"alhnd","count":123,"type":"PLACE"}},{"_id":"611daa7d5f9d5cbbd4189e0b","type":"Feature","geometry":{"type":"Point","coordinates":[43.64119026,41.63727628]},"properties":{"placename":"الكرج","hebrewname":"אלכרג","englishname":"alkrj","count":6,"type":"PLACE"}},{"_id":"611daa7d5f9d5cbbd4189e0c","type":"Feature","geometry":{"type":"Point","coordinates":[69.66928,23.25397]},"properties":{"placename":"بلاد الهند","hebrewname":"בלאד אלהנד","englishname":"blad alhnd","count":19,"type":"PLACE"}},{"_id":"611daa7d5f9d5cbbd4189e0d","type":"Feature","geometry":{"type":"Point","coordinates":[50.12413457,26.39324783]},"properties":{"placename":"هجر","hebrewname":"הגר","englishname":"hjr","count":12,"type":"PLACE"}},{"_id":"611daa7d5f9d5cbbd4189e0e","type":"Feature","geometry":{"type":"Point","coordinates":[49.60537,14.76026]},"properties":{"placename":"الشحر","hebrewname":"אלשחר","englishname":"alshHr","count":5,"type":"PLACE"}},{"_id":"611daa7d5f9d5cbbd4189e0f","type":"Feature","geometry":{"type":"Point","coordinates":[10.16579,36.81897]},"properties":{"placename":"تونس","hebrewname":"תונס","englishname":"tons","count":4,"type":"PLACE"}},{"_id":"611daa7d5f9d5cbbd4189e10","type":"Feature","geometry":{"type":"Point","coordinates":[48.95922043,31.4963472]},"properties":{"placename":"خوزستان","hebrewname":"חוזסתאנ","englishname":"xozstan","count":9,"type":"PLACE"}},{"_id":"611daa7d5f9d5cbbd4189e11","type":"Feature","geometry":{"type":"Point","coordinates":[54.42638798,36.84203965]},"properties":{"placename":"جرجان","hebrewname":"גרגאנ","englishname":"jrjan","count":18,"type":"PLACE"}},{"_id":"611daa7d5f9d5cbbd4189e12","type":"Feature","geometry":{"type":"Point","coordinates":[57.83168226,28.14503048]},"properties":{"placename":"الديلم","hebrewname":"אלדילמ","englishname":"aldylm","count":12,"type":"PLACE"}},{"_id":"611daa7d5f9d5cbbd4189e13","type":"Feature","geometry":{"type":"Point","coordinates":[39.22321,38.67431]},"properties":{"placename":"معمورة","hebrewname":"מעמורה","englishname":"mamorah","count":3,"type":"PLACE"}},{"_id":"611daa7d5f9d5cbbd4189e14","type":"Feature","geometry":{"type":"Point","coordinates":[44.40514,14.54274]},"properties":{"placename":"ذمار","hebrewname":"דמאר","englishname":"Vmar","count":4,"type":"PLACE"}},{"_id":"611daa7d5f9d5cbbd4189e15","type":"Feature","geometry":{"type":"Point","coordinates":[47.59909891,15.90146141]},"properties":{"placename":"اليمن","hebrewname":"אלימנ","englishname":"alymn","count":68,"type":"PLACE"}},{"_id":"611daa7d5f9d5cbbd4189e16","type":"Feature","geometry":{"type":"Point","coordinates":[35.49632,32.49728]},"properties":{"placename":"بيسان","hebrewname":"ביסאנ","englishname":"bysan","count":1,"type":"PLACE"}},{"_id":"611daa7d5f9d5cbbd4189e17","type":"Feature","geometry":{"type":"Point","coordinates":[43.4973,25.86944]},"properties":{"placename":"الرس","hebrewname":"אלרס","englishname":"alrs","count":30,"type":"PLACE"}},{"_id":"611daa7d5f9d5cbbd4189e18","type":"Feature","geometry":{"type":"Point","coordinates":[35.45661131,31.88591073]},"properties":{"placename":"أريحا","hebrewname":"אריחא","englishname":"AryHa","count":3,"type":"PLACE"}},{"_id":"611daa7d5f9d5cbbd4189e19","type":"Feature","geometry":{"type":"Point","coordinates":[54.49079533,18.57585269]},"properties":{"placename":"ظفار","hebrewname":"זפאר","englishname":"Zfar","count":12,"type":"PLACE"}},{"_id":"611daa7d5f9d5cbbd4189e1a","type":"Feature","geometry":{"type":"Point","coordinates":[32.85427,39.91987]},"properties":{"placename":"أنقرة","hebrewname":"אנקרה","englishname":"Anqrah","count":4,"type":"PLACE"}},{"_id":"611daa7d5f9d5cbbd4189e1b","type":"Feature","geometry":{"type":"Point","coordinates":[35.13854901,32.32363306]},"properties":{"placename":"السامرة","hebrewname":"אלסאמרה","englishname":"alsamrah","count":2,"type":"PLACE"}},{"_id":"611daa7d5f9d5cbbd4189e1c","type":"Feature","geometry":{"type":"Point","coordinates":[35.05122,32.3856]},"properties":{"placename":"زيتا","hebrewname":"זיתא","englishname":"zyta","count":2,"type":"PLACE"}},{"_id":"611daa7d5f9d5cbbd4189e1d","type":"Feature","geometry":{"type":"Point","coordinates":[64.78566,34.15599]},"properties":{"placename":"الغور","hebrewname":"אלעור","englishname":"algor","count":9,"type":"PLACE"}},{"_id":"611daa7d5f9d5cbbd4189e1e","type":"Feature","geometry":{"type":"Point","coordinates":[39.10816554,-3.47365888]},"properties":{"placename":"الزنج","hebrewname":"אלזנג","englishname":"alznj","count":22,"type":"PLACE"}},{"_id":"611daa7d5f9d5cbbd4189e1f","type":"Feature","geometry":{"type":"Point","coordinates":[34.86563,31.92923]},"properties":{"placename":"الرملة","hebrewname":"אלרמלה","englishname":"alrmlah","count":1,"type":"PLACE"}},{"_id":"611daa7d5f9d5cbbd4189e20","type":"Feature","geometry":{"type":"Point","coordinates":[48.84079405,32.04350086]},"properties":{"placename":"تستر","hebrewname":"תסתר","englishname":"tstr","count":16,"type":"PLACE"}},{"_id":"611daa7d5f9d5cbbd4189e21","type":"Feature","geometry":{"type":"Point","coordinates":[62.19967,34.34817]},"properties":{"placename":"هراة","hebrewname":"הראה","englishname":"hraah","count":13,"type":"PLACE"}},{"_id":"611daa7d5f9d5cbbd4189e22","type":"Feature","geometry":{"type":"Point","coordinates":[46.2919,38.08]},"properties":{"placename":"تبريز","hebrewname":"תבריז","englishname":"tbryz","count":6,"type":"PLACE"}},{"_id":"611daa7d5f9d5cbbd4189e23","type":"Feature","geometry":{"type":"Point","coordinates":[31.254278,29.849667]},"properties":{"placename":"منف","hebrewname":"מנפ","englishname":"mnf","count":18,"type":"PLACE"}},{"_id":"611daa7d5f9d5cbbd4189e24","type":"Feature","geometry":{"type":"Point","coordinates":[44.3915976,33.29761532]},"properties":{"placename":"بغداد","hebrewname":"בעדאד","englishname":"bgdad","count":82,"type":"PLACE"}},{"_id":"611daa7d5f9d5cbbd4189e25","type":"Feature","geometry":{"type":"Point","coordinates":[35.21633,31.76904]},"properties":{"placename":"صهيون","hebrewname":"צהיונ","englishname":"Shyon","count":2,"type":"PLACE"}},{"_id":"611daa7d5f9d5cbbd4189e26","type":"Feature","geometry":{"type":"Point","coordinates":[29.88079617,26.49020141]},"properties":{"placename":"مصر","hebrewname":"מצר","englishname":"mSr","count":159,"type":"PLACE"}},{"_id":"611daa7d5f9d5cbbd4189e27","type":"Feature","geometry":{"type":"Point","coordinates":[39.57787837,24.51631798]},"properties":{"placename":"طيبة","hebrewname":"טיבה","englishname":"Tybah","count":57,"type":"PLACE"}},{"_id":"611daa7d5f9d5cbbd4189e28","type":"Feature","geometry":{"type":"Point","coordinates":[13.97339196,37.69790542]},"properties":{"placename":"صقلية","hebrewname":"צקליה","englishname":"Sqlyah","count":5,"type":"PLACE"}},{"_id":"611daa7d5f9d5cbbd4189e29","type":"Feature","geometry":{"type":"Point","coordinates":[8.83651,35.16758]},"properties":{"placename":"القصرين","hebrewname":"אלקצרינ","englishname":"alqSryn","count":1,"type":"PLACE"}},{"_id":"611daa7d5f9d5cbbd4189e2a","type":"Feature","geometry":{"type":"Point","coordinates":[34.89277,36.91766]},"properties":{"placename":"طرسوس","hebrewname":"טרסוס","englishname":"Trsos","count":8,"type":"PLACE"}},{"_id":"611daa7d5f9d5cbbd4189e2b","type":"Feature","geometry":{"type":"Point","coordinates":[36.71219,35.26592]},"properties":{"placename":"يثرب","hebrewname":"יתרב","englishname":"yvrb","count":1,"type":"PLACE"}},{"_id":"611daa7d5f9d5cbbd4189e2c","type":"Feature","geometry":{"type":"Point","coordinates":[45.03667,12.77944]},"properties":{"placename":"عدن","hebrewname":"עדנ","englishname":"adn","count":82,"type":"PLACE"}},{"_id":"611daa7d5f9d5cbbd4189e2d","type":"Feature","geometry":{"type":"Point","coordinates":[36.10213,32.61889]},"properties":{"placename":"درعا","hebrewname":"דרעא","englishname":"draa","count":3,"type":"PLACE"}},{"_id":"611daa7d5f9d5cbbd4189e2e","type":"Feature","geometry":{"type":"Point","coordinates":[36.1213,32.12901]},"properties":{"placename":"الهاشمية","hebrewname":"אלהאשמיה","englishname":"alhashmyah","count":1,"type":"PLACE"}},{"_id":"611daa7d5f9d5cbbd4189e2f","type":"Feature","geometry":{"type":"Point","coordinates":[35.41870028,38.66608611]},"properties":{"placename":"الروم","hebrewname":"אלרומ","englishname":"alrom","count":124,"type":"PLACE"}},{"_id":"611daa7d5f9d5cbbd4189e30","type":"Feature","geometry":{"type":"Point","coordinates":[49.99330536,18.54752091]},"properties":{"placename":"الأحقاف","hebrewname":"אלאחקאפ","englishname":"alAHqaf","count":2,"type":"PLACE"}},{"_id":"611daa7d5f9d5cbbd4189e31","type":"Feature","geometry":{"type":"Point","coordinates":[48.99889,16.05694]},"properties":{"placename":"تريم","hebrewname":"תרימ","englishname":"trym","count":1,"type":"PLACE"}},{"_id":"611daa7d5f9d5cbbd4189e32","type":"Feature","geometry":{"type":"Point","coordinates":[28.85624781,41.16782447]},"properties":{"placename":"استنبول","hebrewname":"אסתנבול","englishname":"astnbol","count":1,"type":"PLACE"}},{"_id":"611daa7d5f9d5cbbd4189e33","type":"Feature","geometry":{"type":"Point","coordinates":[1.334370961,36.15950931]},"properties":{"placename":"شلف","hebrewname":"שלפ","englishname":"shlf","count":1,"type":"PLACE"}},{"_id":"611daa7d5f9d5cbbd4189e34","type":"Feature","geometry":{"type":"Point","coordinates":[32.27225,30.60427]},"properties":{"placename":"الإسماعيلية","hebrewname":"אלאיסמאעיליה","englishname":"alAsmaaylyah","count":4,"type":"PLACE"}},{"_id":"611daa7d5f9d5cbbd4189e35","type":"Feature","geometry":{"type":"Point","coordinates":[49.3918202,22.22771204]},"properties":{"placename":"الاحساء","hebrewname":"אלאחסאא","englishname":"alaHsaa","count":2,"type":"PLACE"}},{"_id":"611daa7d5f9d5cbbd4189e36","type":"Feature","geometry":{"type":"Point","coordinates":[10.85745,33.87576]},"properties":{"placename":"حومة","hebrewname":"חומה","englishname":"Homah","count":1,"type":"PLACE"}},{"_id":"611daa7d5f9d5cbbd4189e37","type":"Feature","geometry":{"type":"Point","coordinates":[56.05285212,20.55560458]},"properties":{"placename":"عمان","hebrewname":"עמאנ","englishname":"aman","count":57,"type":"PLACE"}},{"_id":"611daa7d5f9d5cbbd4189e38","type":"Feature","geometry":{"type":"Point","coordinates":[66.8972,36.75635]},"properties":{"placename":"بلخ","hebrewname":"בלח","englishname":"blx","count":18,"type":"PLACE"}},{"_id":"611daa7d5f9d5cbbd4189e39","type":"Feature","geometry":{"type":"Point","coordinates":[-6.301363963,31.8809251]},"properties":{"placename":"المغرب","hebrewname":"אלמערב","englishname":"almgrb","count":75,"type":"PLACE"}},{"_id":"611daa7d5f9d5cbbd4189e3a","type":"Feature","geometry":{"type":"Point","coordinates":[36.52718065,35.01992756]},"properties":{"placename":"البجة","hebrewname":"אלבגה","englishname":"albjah","count":2,"type":"PLACE"}},{"_id":"611daa7d5f9d5cbbd4189e3b","type":"Feature","geometry":{"type":"Point","coordinates":[38.06374,24.08912]},"properties":{"placename":"ينبع","hebrewname":"ינבע","englishname":"ynba","count":20,"type":"PLACE"}},{"_id":"611daa7d5f9d5cbbd4189e3c","type":"Feature","geometry":{"type":"Point","coordinates":[36.48256,32.52013]},"properties":{"placename":"الشام","hebrewname":"אלשאמ","englishname":"alsham","count":98,"type":"PLACE"}},{"_id":"611daa7d5f9d5cbbd4189e3d","type":"Feature","geometry":{"type":"Point","coordinates":[71.44174367,37.03574149]},"properties":{"placename":"بدخشان","hebrewname":"בדחשאנ","englishname":"bdxshan","count":1,"type":"PLACE"}},{"_id":"611daa7d5f9d5cbbd4189e3e","type":"Feature","geometry":{"type":"Point","coordinates":[35.73008951,30.2408566]},"properties":{"placename":"بسطة","hebrewname":"בסטה","englishname":"bsTah","count":5,"type":"PLACE"}},{"_id":"611daa7d5f9d5cbbd4189e3f","type":"Feature","geometry":{"type":"Point","coordinates":[43.64784483,37.09961046]},"properties":{"placename":"الرصافة","hebrewname":"אלרצאפה","englishname":"alrSafah","count":1,"type":"PLACE"}},{"_id":"611daa7d5f9d5cbbd4189e40","type":"Feature","geometry":{"type":"Point","coordinates":[8.984670702,35.81736073]},"properties":{"placename":"زيتونة","hebrewname":"זיתונה","englishname":"zytonah","count":5,"type":"PLACE"}},{"_id":"611daa7d5f9d5cbbd4189e41","type":"Feature","geometry":{"type":"Point","coordinates":[10.09633,35.6781]},"properties":{"placename":"القيروان","hebrewname":"אלקירואנ","englishname":"alqyroan","count":12,"type":"PLACE"}},{"_id":"611daa7d5f9d5cbbd4189e42","type":"Feature","geometry":{"type":"Point","coordinates":[54.30402579,32.56323656]},"properties":{"placename":"إيران","hebrewname":"אייראנ","englishname":"Ayran","count":2,"type":"PLACE"}},{"_id":"611daa7d5f9d5cbbd4189e43","type":"Feature","geometry":{"type":"Point","coordinates":[35.19470215,31.76320221]},"properties":{"placename":"فلسطين","hebrewname":"פלסטינ","englishname":"flsTyn","count":6,"type":"PLACE"}},{"_id":"611daa7d5f9d5cbbd4189e44","type":"Feature","geometry":{"type":"Point","coordinates":[44.22072952,15.35450332]},"properties":{"placename":"غمدان","hebrewname":"עמדאנ","englishname":"gmdan","count":7,"type":"PLACE"}},{"_id":"611daa7d5f9d5cbbd4189e45","type":"Feature","geometry":{"type":"Point","coordinates":[11.06222,35.50472]},"properties":{"placename":"المهدية","hebrewname":"אלמהדיה","englishname":"almhdyah","count":8,"type":"PLACE"}},{"_id":"611daa7d5f9d5cbbd4189e46","type":"Feature","geometry":{"type":"Point","coordinates":[43.53639,14.83361]},"properties":{"placename":"بلاد","hebrewname":"בלאד","englishname":"blad","count":557,"type":"PLACE"}},{"_id":"611daa7d5f9d5cbbd4189e47","type":"Feature","geometry":{"type":"Point","coordinates":[20.25205,31.66818]},"properties":{"placename":"سلوق","hebrewname":"סלוק","englishname":"sloq","count":4,"type":"PLACE"}},{"_id":"611daa7d5f9d5cbbd4189e48","type":"Feature","geometry":{"type":"Point","coordinates":[32.78441237,15.8445239]},"properties":{"placename":"الخرطوم","hebrewname":"אלחרטומ","englishname":"alxrTom","count":3,"type":"PLACE"}},{"_id":"611daa7d5f9d5cbbd4189e49","type":"Feature","geometry":{"type":"Point","coordinates":[39.82572268,21.40838885]},"properties":{"placename":"حراء","hebrewname":"חראא","englishname":"Hraa","count":14,"type":"PLACE"}},{"_id":"611daa7d5f9d5cbbd4189e4a","type":"Feature","geometry":{"type":"Point","coordinates":[35.23417,31.77667]},"properties":{"placename":"القدس","hebrewname":"אלקדס","englishname":"alqds","count":1,"type":"PLACE"}},{"_id":"611daa7d5f9d5cbbd4189e4b","type":"Feature","geometry":{"type":"Point","coordinates":[35.2543,31.89682]},"properties":{"placename":"برقة","hebrewname":"ברקה","englishname":"brqah","count":4,"type":"PLACE"}},{"_id":"611daa7d5f9d5cbbd4189e4c","type":"Feature","geometry":{"type":"Point","coordinates":[68.8678309,35.911057]},"properties":{"placename":"بروان","hebrewname":"ברואנ","englishname":"broan","count":3,"type":"PLACE"}},{"_id":"611daa7d5f9d5cbbd4189e4d","type":"Feature","geometry":{"type":"Point","coordinates":[36.31551,32.56909]},"properties":{"placename":"الجيزة","hebrewname":"אלגיזה","englishname":"aljyzah","count":3,"type":"PLACE"}},{"_id":"611daa7d5f9d5cbbd4189e4e","type":"Feature","geometry":{"type":"Point","coordinates":[31.2359761,30.04685422]},"properties":{"placename":"القاهرة","hebrewname":"אלקאהרה","englishname":"alqahrah","count":3,"type":"PLACE"}},{"_id":"611daa7d5f9d5cbbd4189e4f","type":"Feature","geometry":{"type":"Point","coordinates":[47.32362749,16.08296311]},"properties":{"placename":"سبأ","hebrewname":"סבא","englishname":"sbA","count":3,"type":"PLACE"}},{"_id":"611daa7d5f9d5cbbd4189e50","type":"Feature","geometry":{"type":"Point","coordinates":[25.18981094,42.47701526]},"properties":{"placename":"بلغار","hebrewname":"בלעאר","englishname":"blgar","count":24,"type":"PLACE"}},{"_id":"611daa7d5f9d5cbbd4189e51","type":"Feature","geometry":{"type":"Point","coordinates":[10.0982,33.88146]},"properties":{"placename":"قابس","hebrewname":"קאבס","englishname":"qabs","count":2,"type":"PLACE"}},{"_id":"611daa7d5f9d5cbbd4189e52","type":"Feature","geometry":{"type":"Point","coordinates":[68.23801,32.68567]},"properties":{"placename":"آمد","hebrewname":"אמד","englishname":"aamd","count":7,"type":"PLACE"}},{"_id":"611daa7d5f9d5cbbd4189e53","type":"Feature","geometry":{"type":"Point","coordinates":[66.95972,39.65417]},"properties":{"placename":"سمرقند","hebrewname":"סמרקנד","englishname":"smrqnd","count":32,"type":"PLACE"}},{"_id":"611daa7d5f9d5cbbd4189e54","type":"Feature","geometry":{"type":"Point","coordinates":[47.39757414,30.39626912]},"properties":{"placename":"البصرة","hebrewname":"אלבצרה","englishname":"albSrah","count":45,"type":"PLACE"}},{"_id":"611daa7d5f9d5cbbd4189e55","type":"Feature","geometry":{"type":"Point","coordinates":[44.58065225,33.09870625]},"properties":{"placename":"المدائن","hebrewname":"אלמדאאנ","englishname":"almdaan","count":6,"type":"PLACE"}},{"_id":"611daa7d5f9d5cbbd4189e56","type":"Feature","geometry":{"type":"Point","coordinates":[35.23598202,31.7712209]},"properties":{"placename":"سلوان","hebrewname":"סלואנ","englishname":"sloan","count":3,"type":"PLACE"}},{"_id":"611daa7d5f9d5cbbd4189e57","type":"Feature","geometry":{"type":"Point","coordinates":[43.48228825,14.55101932]},"properties":{"placename":"تهامة","hebrewname":"תהאמה","englishname":"thamah","count":4,"type":"PLACE"}},{"_id":"611daa7d5f9d5cbbd4189e58","type":"Feature","geometry":{"type":"Point","coordinates":[-1.315,34.87833]},"properties":{"placename":"تلمسان","hebrewname":"תלמסאנ","englishname":"tlmsan","count":2,"type":"PLACE"}},{"_id":"611daa7d5f9d5cbbd4189e59","type":"Feature","geometry":{"type":"Point","coordinates":[31.3069205,30.00942742]},"properties":{"placename":"المقطم","hebrewname":"אלמקטמ","englishname":"almqTm","count":2,"type":"PLACE"}},{"_id":"611daa7d5f9d5cbbd4189e5a","type":"Feature","geometry":{"type":"Point","coordinates":[34.57409483,31.66757417]},"properties":{"placename":"عسقلان","hebrewname":"עסקלאנ","englishname":"asqlan","count":7,"type":"PLACE"}},{"_id":"611daa7d5f9d5cbbd4189e5b","type":"Feature","geometry":{"type":"Point","coordinates":[-4.288322071,31.27651737]},"properties":{"placename":"سجلماسة","hebrewname":"סגלמאסה","englishname":"sjlmasah","count":4,"type":"PLACE"}},{"_id":"611daa7d5f9d5cbbd4189e5c","type":"Feature","geometry":{"type":"Point","coordinates":[34.46667,31.5]},"properties":{"placename":"غزة","hebrewname":"עזה","englishname":"gzah","count":3,"type":"PLACE"}},{"_id":"611daa7d5f9d5cbbd4189e5d","type":"Feature","geometry":{"type":"Point","coordinates":[33.79844,31.13159]},"properties":{"placename":"العريش","hebrewname":"אלעריש","englishname":"alarysh","count":9,"type":"PLACE"}},{"_id":"611daa7d5f9d5cbbd4189e5e","type":"Feature","geometry":{"type":"Point","coordinates":[14.05381011,32.33110764]},"properties":{"placename":"المرقب","hebrewname":"אלמרקב","englishname":"almrqb","count":2,"type":"PLACE"}},{"_id":"611daa7d5f9d5cbbd4189e5f","type":"Feature","geometry":{"type":"Point","coordinates":[8.96903,33.70439]},"properties":{"placename":"قبلي","hebrewname":"קבלי","englishname":"qbly","count":11,"type":"PLACE"}},{"_id":"611daa7d5f9d5cbbd4189e60","type":"Feature","geometry":{"type":"Point","coordinates":[58.40778,23.58413]},"properties":{"placename":"بعمان","hebrewname":"בעמאנ","englishname":"baman","count":3,"type":"PLACE"}},{"_id":"611daa7d5f9d5cbbd4189e61","type":"Feature","geometry":{"type":"Point","coordinates":[36.27793722,33.51557549]},"properties":{"placename":"دمشق","hebrewname":"דמשק","englishname":"dmshq","count":39,"type":"PLACE"}},{"_id":"611daa7d5f9d5cbbd4189e62","type":"Feature","geometry":{"type":"Point","coordinates":[42.82768,33.63664]},"properties":{"placename":"هيت","hebrewname":"הית","englishname":"hyt","count":11,"type":"PLACE"}},{"_id":"611daa7d5f9d5cbbd4189e63","type":"Feature","geometry":{"type":"Point","coordinates":[103.8310775,36.56380228]},"properties":{"placename":"الصين","hebrewname":"אלצינ","englishname":"alSyn","count":69,"type":"PLACE"}},{"_id":"611daa7d5f9d5cbbd4189e64","type":"Feature","geometry":{"type":"Point","coordinates":[48.09472,29.14583]},"properties":{"placename":"الرقة","hebrewname":"אלרקה","englishname":"alrqah","count":5,"type":"PLACE"}},{"_id":"611daa7d5f9d5cbbd4189e65","type":"Feature","geometry":{"type":"Point","coordinates":[35.8238069,37.02756835]},"properties":{"placename":"جيحان","hebrewname":"גיחאנ","englishname":"jyHan","count":2,"type":"PLACE"}},{"_id":"611daa7d5f9d5cbbd4189e66","type":"Feature","geometry":{"type":"Point","coordinates":[36.28592669,33.54641034]},"properties":{"placename":"قاسيون","hebrewname":"קאסיונ","englishname":"qasyon","count":1,"type":"PLACE"}},{"_id":"611daa7d5f9d5cbbd4189e67","type":"Feature","geometry":{"type":"Point","coordinates":[44.89924514,41.67265077]},"properties":{"placename":"تفليس","hebrewname":"תפליס","englishname":"tflys","count":4,"type":"PLACE"}},{"_id":"611daa7d5f9d5cbbd4189e68","type":"Feature","geometry":{"type":"Point","coordinates":[41.62184945,32.96809023]},"properties":{"placename":"الانبار","hebrewname":"אלאנבאר","englishname":"alanbar","count":2,"type":"PLACE"}},{"_id":"611daa7d5f9d5cbbd4189e69","type":"Feature","geometry":{"type":"Point","coordinates":[65.71013,31.61332]},"properties":{"placename":"قندهار","hebrewname":"קנדהאר","englishname":"qndhar","count":1,"type":"PLACE"}},{"_id":"611daa7d5f9d5cbbd4189e6a","type":"Feature","geometry":{"type":"Point","coordinates":[-5.00028,34.03313]},"properties":{"placename":"فاس","hebrewname":"פאס","englishname":"fas","count":78,"type":"PLACE"}},{"_id":"611daa7d5f9d5cbbd4189e6b","type":"Feature","geometry":{"type":"Point","coordinates":[36.0043148,31.8786659]},"properties":{"placename":"سحاب","hebrewname":"סחאב","englishname":"sHab","count":23,"type":"PLACE"}},{"_id":"611daa7d5f9d5cbbd4189e6c","type":"Feature","geometry":{"type":"Point","coordinates":[50.5487711,26.05131104]},"properties":{"placename":"البحرين","hebrewname":"אלבחרינ","englishname":"albHryn","count":18,"type":"PLACE"}},{"_id":"611daa7d5f9d5cbbd4189e6d","type":"Feature","geometry":{"type":"Point","coordinates":[37.21644,19.61745]},"properties":{"placename":"سودان","hebrewname":"סודאנ","englishname":"sodan","count":22,"type":"PLACE"}},{"_id":"611daa7d5f9d5cbbd4189e6e","type":"Feature","geometry":{"type":"Point","coordinates":[43.90445,15.50943]},"properties":{"placename":"شبام","hebrewname":"שבאמ","englishname":"shbam","count":2,"type":"PLACE"}},{"_id":"611daa7d5f9d5cbbd4189e6f","type":"Feature","geometry":{"type":"Point","coordinates":[5.08433,36.75587]},"properties":{"placename":"بجاية","hebrewname":"בגאיה","englishname":"bjayah","count":2,"type":"PLACE"}},{"_id":"611daa7d5f9d5cbbd4189e70","type":"Feature","geometry":{"type":"Point","coordinates":[37.01611,39.74833]},"properties":{"placename":"سيواس","hebrewname":"סיואס","englishname":"syoas","count":3,"type":"PLACE"}},{"_id":"611daa7d5f9d5cbbd4189e71","type":"Feature","geometry":{"type":"Point","coordinates":[12.4638911,41.9038537]},"properties":{"placename":"رومية","hebrewname":"רומיה","englishname":"romyah","count":17,"type":"PLACE"}},{"_id":"611daa7d5f9d5cbbd4189e72","type":"Feature","geometry":{"type":"Point","coordinates":[59.50875521,36.4811468]},"properties":{"placename":"طوس","hebrewname":"טוס","englishname":"Tos","count":15,"type":"PLACE"}},{"_id":"611daa7d5f9d5cbbd4189e73","type":"Feature","geometry":{"type":"Point","coordinates":[-0.87734,41.65606]},"properties":{"placename":"سرقسطة","hebrewname":"סרקסטה","englishname":"srqsTah","count":2,"type":"PLACE"}},{"_id":"611daa7d5f9d5cbbd4189e74","type":"Feature","geometry":{"type":"Point","coordinates":[39.52981318,24.52756279]},"properties":{"placename":"المدينة","hebrewname":"אלמדינה","englishname":"almdynah","count":279,"type":"PLACE"}},{"_id":"611daa7d5f9d5cbbd4189e75","type":"Feature","geometry":{"type":"Point","coordinates":[43.96833,13.39028]},"properties":{"placename":"نجد","hebrewname":"נגד","englishname":"njd","count":14,"type":"PLACE"}},{"_id":"611daa7d5f9d5cbbd4189e76","type":"Feature","geometry":{"type":"Point","coordinates":[45.57022767,15.47665707]},"properties":{"placename":"مأرب","hebrewname":"מארב","englishname":"mArb","count":3,"type":"PLACE"}},{"_id":"611daa7d5f9d5cbbd4189e77","type":"Feature","geometry":{"type":"Point","coordinates":[46.71535298,24.59426088]},"properties":{"placename":"اليمامة","hebrewname":"אלימאמה","englishname":"alymamah","count":13,"type":"PLACE"}},{"_id":"611daa7d5f9d5cbbd4189e78","type":"Feature","geometry":{"type":"Point","coordinates":[42.47463029,36.02265052]},"properties":{"placename":"الموصل","hebrewname":"אלמוצל","englishname":"almoSl","count":34,"type":"PLACE"}},{"_id":"611daa7d5f9d5cbbd4189e79","type":"Feature","geometry":{"type":"Point","coordinates":[31.3104974,30.36424359]},"properties":{"placename":"القلزم","hebrewname":"אלקלזמ","englishname":"alqlzm","count":4,"type":"PLACE"}},{"_id":"611daa7d5f9d5cbbd4189e7a","type":"Feature","geometry":{"type":"Point","coordinates":[64.42861,39.77472]},"properties":{"placename":"بخارى","hebrewname":"בחארא","englishname":"bxara","count":24,"type":"PLACE"}},{"_id":"611daa7d5f9d5cbbd4189e7b","type":"Feature","geometry":{"type":"Point","coordinates":[42.95452,14.79781]},"properties":{"placename":"الحديدة","hebrewname":"אלחדידה","englishname":"alHdydah","count":3,"type":"PLACE"}},{"_id":"611daa7d5f9d5cbbd4189e7c","type":"Feature","geometry":{"type":"Point","coordinates":[42.64018667,37.15355923]},"properties":{"placename":"الخابور","hebrewname":"אלחאבור","englishname":"alxabor","count":3,"type":"PLACE"}},{"_id":"611daa7d5f9d5cbbd4189e7e","type":"Feature","geometry":{"type":"Point","coordinates":[44.44017,32.05114]},"properties":{"placename":"الكوفة","hebrewname":"אלכופה","englishname":"alkofah","count":25,"type":"PLACE"}},{"_id":"611daa7d5f9d5cbbd4189e7f","type":"Feature","geometry":{"type":"Point","coordinates":[31.73183664,30.66673531]},"properties":{"placename":"الشرقية","hebrewname":"אלשרקיה","englishname":"alshrqyah","count":3,"type":"PLACE"}},{"_id":"611daa7d5f9d5cbbd4189e80","type":"Feature","geometry":{"type":"Point","coordinates":[-4.02263,39.8581]},"properties":{"placename":"طليطلة","hebrewname":"טליטלה","englishname":"TlyTlah","count":9,"type":"PLACE"}},{"_id":"611daa7d5f9d5cbbd4189e81","type":"Feature","geometry":{"type":"Point","coordinates":[36.1635668,36.20853979]},"properties":{"placename":"انطاكية","hebrewname":"אנטאכיה","englishname":"anTakyah","count":6,"type":"PLACE"}},{"_id":"611daa7d5f9d5cbbd4189e82","type":"Feature","geometry":{"type":"Point","coordinates":[37.59952067,36.23280127]},"properties":{"placename":"حلب","hebrewname":"חלב","englishname":"Hlb","count":32,"type":"PLACE"}},{"_id":"611daa7d5f9d5cbbd4189e83","type":"Feature","geometry":{"type":"Point","coordinates":[-6.338405465,38.92084343]},"properties":{"placename":"ماردة","hebrewname":"מארדה","englishname":"mardah","count":1,"type":"PLACE"}},{"_id":"611daa7d5f9d5cbbd4189e84","type":"Feature","geometry":{"type":"Point","coordinates":[43.67861,34.61581]},"properties":{"placename":"تكريت","hebrewname":"תכרית","englishname":"tkryt","count":3,"type":"PLACE"}},{"_id":"611daa7d5f9d5cbbd4189e85","type":"Feature","geometry":{"type":"Point","coordinates":[35.27343959,32.24407619]},"properties":{"placename":"بلاطة","hebrewname":"בלאטה","englishname":"blaTah","count":1,"type":"PLACE"}},{"_id":"611daa7d5f9d5cbbd4189e86","type":"Feature","geometry":{"type":"Point","coordinates":[45.12735,36.18536]},"properties":{"placename":"قلعة","hebrewname":"קלעה","englishname":"qlaah","count":92,"type":"PLACE"}},{"_id":"611daa7d5f9d5cbbd4189e87","type":"Feature","geometry":{"type":"Point","coordinates":[42.74085041,17.0734513]},"properties":{"placename":"الطاهرية","hebrewname":"אלטאהריה","englishname":"alTahryah","count":2,"type":"PLACE"}},{"_id":"611daa7d5f9d5cbbd4189e88","type":"Feature","geometry":{"type":"Point","coordinates":[51.67462,32.65246]},"properties":{"placename":"أصفهان","hebrewname":"אצפהאנ","englishname":"ASfhan","count":54,"type":"PLACE"}},{"_id":"611daa7d5f9d5cbbd4189e89","type":"Feature","geometry":{"type":"Point","coordinates":[38.28402,34.5624]},"properties":{"placename":"تدمر","hebrewname":"תדמר","englishname":"tdmr","count":6,"type":"PLACE"}},{"_id":"611daa7d5f9d5cbbd4189e8a","type":"Feature","geometry":{"type":"Point","coordinates":[36.78608728,31.24548624]},"properties":{"placename":"الأردن","hebrewname":"אלארדנ","englishname":"alArdn","count":5,"type":"PLACE"}},{"_id":"611daa7d5f9d5cbbd4189e8b","type":"Feature","geometry":{"type":"Point","coordinates":[53.18619713,29.29639233]},"properties":{"placename":"فارس","hebrewname":"פארס","englishname":"fars","count":90,"type":"PLACE"}},{"_id":"611daa7d5f9d5cbbd4189e8c","type":"Feature","geometry":{"type":"Point","coordinates":[-4.08470432,39.37069944]},"properties":{"placename":"الأندلس","hebrewname":"אלאנדלס","englishname":"alAndls","count":95,"type":"PLACE"}},{"_id":"611daa7d5f9d5cbbd4189e8d","type":"Feature","geometry":{"type":"Point","coordinates":[72.31757623,40.80267326]},"properties":{"placename":"أسروشنة","hebrewname":"אסרושנה","englishname":"Asroshnah","count":1,"type":"PLACE"}},{"_id":"611daa7d5f9d5cbbd4189e8e","type":"Feature","geometry":{"type":"Point","coordinates":[31.23341879,30.00070536]},"properties":{"placename":"الفسطاط","hebrewname":"אלפסטאט","englishname":"alfsTaT","count":13,"type":"PLACE"}},{"_id":"611daa7d5f9d5cbbd4189e8f","type":"Feature","geometry":{"type":"Point","coordinates":[36.78608728,31.24548624]},"properties":{"placename":"المملكة","hebrewname":"אלממלכה","englishname":"almmlkah","count":6,"type":"PLACE"}},{"_id":"611daa7d5f9d5cbbd4189e90","type":"Feature","geometry":{"type":"Point","coordinates":[36.4850684,33.0657416]},"properties":{"placename":"بلاد الشام","hebrewname":"בלאד אלשאמ","englishname":"blad alsham","count":6,"type":"PLACE"}},{"_id":"611daa7d5f9d5cbbd4189e91","type":"Feature","geometry":{"type":"Point","coordinates":[9.87391,37.27442]},"properties":{"placename":"بنزرت","hebrewname":"בנזרת","englishname":"bnzrt","count":3,"type":"PLACE"}},{"_id":"611daa7d5f9d5cbbd4189e92","type":"Feature","geometry":{"type":"Point","coordinates":[32.28815767,13.44291963]},"properties":{"placename":"النيل","hebrewname":"אלניל","englishname":"alnyl","count":74,"type":"PLACE"}},{"_id":"611daa7d5f9d5cbbd4189e93","type":"Feature","geometry":{"type":"Point","coordinates":[48.51456,34.79922]},"properties":{"placename":"همذان","hebrewname":"המדאנ","englishname":"hmVan","count":73,"type":"PLACE"}},{"_id":"611daa7d5f9d5cbbd4189e94","type":"Feature","geometry":{"type":"Point","coordinates":[37.97389789,25.64721574]},"properties":{"placename":"الحجاز","hebrewname":"אלחגאז","englishname":"alHjaz","count":18,"type":"PLACE"}},{"_id":"611daa7d5f9d5cbbd4189e95","type":"Feature","geometry":{"type":"Point","coordinates":[43.31518,14.1951]},"properties":{"placename":"زبيد","hebrewname":"זביד","englishname":"zbyd","count":7,"type":"PLACE"}},{"_id":"611daa7d5f9d5cbbd4189e96","type":"Feature","geometry":{"type":"Point","coordinates":[68.76780824,26.02647424]},"properties":{"placename":"السند","hebrewname":"אלסנד","englishname":"alsnd","count":22,"type":"PLACE"}},{"_id":"611daa7d5f9d5cbbd4189e97","type":"Feature","geometry":{"type":"Point","coordinates":[41.56470111,19.86643026]},"properties":{"placename":"السراة","hebrewname":"אלסראה","englishname":"alsraah","count":5,"type":"PLACE"}},{"_id":"611daa7d5f9d5cbbd4189e98","type":"Feature","geometry":{"type":"Point","coordinates":[35.68414,32.6532]},"properties":{"placename":"قيس","hebrewname":"קיס","englishname":"qys","count":29,"type":"PLACE"}},{"_id":"611daa7d5f9d5cbbd4189e99","type":"Feature","geometry":{"type":"Point","coordinates":[36.02504448,35.56810815]},"properties":{"placename":"اللاذقية","hebrewname":"אללאדקיה","englishname":"allaVqyah","count":3,"type":"PLACE"}},{"_id":"611daa7d5f9d5cbbd4189e9a","type":"Feature","geometry":{"type":"Point","coordinates":[48.6842,31.31901]},"properties":{"placename":"الأهواز","hebrewname":"אלאהואז","englishname":"alAhoaz","count":2,"type":"PLACE"}},{"_id":"611daa7d5f9d5cbbd4189e9b","type":"Feature","geometry":{"type":"Point","coordinates":[38.74288,35.83917]},"properties":{"placename":"المنصورة","hebrewname":"אלמנצורה","englishname":"almnSorah","count":3,"type":"PLACE"}},{"_id":"611daa7d5f9d5cbbd4189e9c","type":"Feature","geometry":{"type":"Point","coordinates":[71.78432,40.38421]},"properties":{"placename":"فرغانة","hebrewname":"פרעאנה","englishname":"frganah","count":5,"type":"PLACE"}},{"_id":"611daa7d5f9d5cbbd4189e9d","type":"Feature","geometry":{"type":"Point","coordinates":[44.53924645,32.63836306]},"properties":{"placename":"بابل","hebrewname":"באבל","englishname":"babl","count":4,"type":"PLACE"}},{"_id":"611daa7d5f9d5cbbd4189e9e","type":"Feature","geometry":{"type":"Point","coordinates":[49.29233058,16.6122021]},"properties":{"placename":"حضرموت","hebrewname":"חדרמות","englishname":"HDrmot","count":15,"type":"PLACE"}},{"_id":"611daa7d5f9d5cbbd4189e9f","type":"Feature","geometry":{"type":"Point","coordinates":[41.87656,36.3209]},"properties":{"placename":"سنجار","hebrewname":"סנגאר","englishname":"snjar","count":9,"type":"PLACE"}},{"_id":"611daa7d5f9d5cbbd4189ea0","type":"Feature","geometry":{"type":"Point","coordinates":[28.94966,41.01384]},"properties":{"placename":"القسطنطينية","hebrewname":"אלקסטנטיניה","englishname":"alqsTnTynyah","count":4,"type":"PLACE"}},{"_id":"611daa7d5f9d5cbbd4189ea1","type":"Feature","geometry":{"type":"Point","coordinates":[-5.161592567,36.74661724]},"properties":{"placename":"رندة","hebrewname":"רנדה","englishname":"rndah","count":3,"type":"PLACE"}},{"_id":"611daa7d5f9d5cbbd4189ea2","type":"Feature","geometry":{"type":"Point","coordinates":[31.72290673,31.37358241]},"properties":{"placename":"دمياط","hebrewname":"דמיאט","englishname":"dmyaT","count":14,"type":"PLACE"}},{"_id":"611daa7d5f9d5cbbd4189ea3","type":"Feature","geometry":{"type":"Point","coordinates":[57.07879,30.28321]},"properties":{"placename":"كرمان","hebrewname":"כרמאנ","englishname":"krman","count":25,"type":"PLACE"}},{"_id":"611daa7d5f9d5cbbd4189ea4","type":"Feature","geometry":{"type":"Point","coordinates":[44.12766,17.49326]},"properties":{"placename":"نجران","hebrewname":"נגראנ","englishname":"njran","count":16,"type":"PLACE"}},{"_id":"611daa7d5f9d5cbbd4189ea5","type":"Feature","geometry":{"type":"Point","coordinates":[36.24803762,33.50207076]},"properties":{"placename":"المزة","hebrewname":"אלמזה","englishname":"almzah","count":1,"type":"PLACE"}},{"_id":"611daa7d5f9d5cbbd4189ea6","type":"Feature","geometry":{"type":"Point","coordinates":[48.29365261,38.24890326]},"properties":{"placename":"أردبيل","hebrewname":"ארדביל","englishname":"Ardbyl","count":5,"type":"PLACE"}},{"_id":"611daa7d5f9d5cbbd4189ea7","type":"Feature","geometry":{"type":"Point","coordinates":[45.52904,14.85192]},"properties":{"placename":"عين","hebrewname":"עינ","englishname":"ayn","count":386,"type":"PLACE"}},{"_id":"611daa7d5f9d5cbbd4189ea8","type":"Feature","geometry":{"type":"Point","coordinates":[-5.985959526,37.3936275]},"properties":{"placename":"اشبيلية","hebrewname":"אשביליה","englishname":"ashbylyah","count":3,"type":"PLACE"}},{"_id":"611daa7d5f9d5cbbd4189ea9","type":"Feature","geometry":{"type":"Point","coordinates":[42.47463029,36.02265052]},"properties":{"placename":"نينوى","hebrewname":"נינוא","englishname":"nynoa","count":3,"type":"PLACE"}},{"_id":"611daa7d5f9d5cbbd4189eaa","type":"Feature","geometry":{"type":"Point","coordinates":[69.92041,33.33951]},"properties":{"placename":"خوست","hebrewname":"חוסת","englishname":"xost","count":1,"type":"PLACE"}},{"_id":"611daa7d5f9d5cbbd4189eab","type":"Feature","geometry":{"type":"Point","coordinates":[44.01635,13.55821]},"properties":{"placename":"دار","hebrewname":"דאר","englishname":"dar","count":219,"type":"PLACE"}},{"_id":"611daa7d5f9d5cbbd4189eac","type":"Feature","geometry":{"type":"Point","coordinates":[66.84607738,37.32452311]},"properties":{"placename":"طخارستان","hebrewname":"טחארסתאנ","englishname":"Txarstan","count":1,"type":"PLACE"}},{"_id":"611daa7d5f9d5cbbd4189ead","type":"Feature","geometry":{"type":"Point","coordinates":[58.357,29.106]},"properties":{"placename":"بم","hebrewname":"במ","englishname":"bm","count":302,"type":"PLACE"}},{"_id":"611daa7d5f9d5cbbd4189eae","type":"Feature","geometry":{"type":"Point","coordinates":[36.08796,32.07275]},"properties":{"placename":"الزرقاء","hebrewname":"אלזרקאא","englishname":"alzrqaa","count":4,"type":"PLACE"}},{"_id":"611daa7d5f9d5cbbd4189eaf","type":"Feature","geometry":{"type":"Point","coordinates":[48.2933,38.2498]},"properties":{"placename":"اردبيل","hebrewname":"ארדביל","englishname":"ardbyl","count":1,"type":"PLACE"}},{"_id":"611daa7d5f9d5cbbd4189eb0","type":"Feature","geometry":{"type":"Point","coordinates":[60.63598377,25.36968646]},"properties":{"placename":"مكران","hebrewname":"מכראנ","englishname":"mkran","count":3,"type":"PLACE"}},{"_id":"611daa7d5f9d5cbbd4189eb1","type":"Feature","geometry":{"type":"Point","coordinates":[-3.525723208,17.35478933]},"properties":{"placename":"مالي","hebrewname":"מאלי","englishname":"maly","count":50,"type":"PLACE"}},{"_id":"611daa7d5f9d5cbbd4189eb2","type":"Feature","geometry":{"type":"Point","coordinates":[71.50211438,30.16396692]},"properties":{"placename":"ملتان","hebrewname":"מלתאנ","englishname":"mltan","count":11,"type":"PLACE"}},{"_id":"611daa7d5f9d5cbbd4189eb3","type":"Feature","geometry":{"type":"Point","coordinates":[30.7800717,30.80334695]},"properties":{"placename":"شابور","hebrewname":"שאבור","englishname":"shabor","count":20,"type":"PLACE"}},{"_id":"611daa7d5f9d5cbbd4189eb4","type":"Feature","geometry":{"type":"Point","coordinates":[71.67257,40.9983]},"properties":{"placename":"الصغد","hebrewname":"אלצעד","englishname":"alSgd","count":5,"type":"PLACE"}},{"_id":"611daa7d5f9d5cbbd4189eb5","type":"Feature","geometry":{"type":"Point","coordinates":[48.52514966,36.72036299]},"properties":{"placename":"زنجان","hebrewname":"זנגאנ","englishname":"znjan","count":8,"type":"PLACE"}},{"_id":"611daa7d5f9d5cbbd4189eb6","type":"Feature","geometry":{"type":"Point","coordinates":[50.22650957,36.13283157]},"properties":{"placename":"هزار","hebrewname":"הזאר","englishname":"hzar","count":5,"type":"PLACE"}},{"_id":"611daa7d5f9d5cbbd4189eb7","type":"Feature","geometry":{"type":"Point","coordinates":[31.73539222,26.56316349]},"properties":{"placename":"إخميم","hebrewname":"איחמימ","englishname":"Axmym","count":1,"type":"PLACE"}},{"_id":"611daa7d5f9d5cbbd4189eb8","type":"Feature","geometry":{"type":"Point","coordinates":[33.23393174,35.06317464]},"properties":{"placename":"قبرس","hebrewname":"קברס","englishname":"qbrs","count":2,"type":"PLACE"}},{"_id":"611daa7d5f9d5cbbd4189eb9","type":"Feature","geometry":{"type":"Point","coordinates":[35.23608926,31.77822553]},"properties":{"placename":"الأقصى","hebrewname":"אלאקצא","englishname":"alAqSa","count":4,"type":"PLACE"}},{"_id":"611daa7d5f9d5cbbd4189eba","type":"Feature","geometry":{"type":"Point","coordinates":[44.3915976,33.29761532]},"properties":{"placename":"بالعراق","hebrewname":"באלעראק","englishname":"balaraq","count":1,"type":"PLACE"}},{"_id":"611daa7d5f9d5cbbd4189ebb","type":"Feature","geometry":{"type":"Point","coordinates":[32.65767571,26.16808437]},"properties":{"placename":"دندرة","hebrewname":"דנדרה","englishname":"dndrah","count":1,"type":"PLACE"}},{"_id":"611daa7d5f9d5cbbd4189ebc","type":"Feature","geometry":{"type":"Point","coordinates":[2.228421655,36.30459738]},"properties":{"placename":"مليانة","hebrewname":"מליאנה","englishname":"mlyanah","count":1,"type":"PLACE"}},{"_id":"611daa7d5f9d5cbbd4189ebd","type":"Feature","geometry":{"type":"Point","coordinates":[22.97947876,39.04697922]},"properties":{"placename":"يونان","hebrewname":"יונאנ","englishname":"yonan","count":12,"type":"PLACE"}},{"_id":"611daa7d5f9d5cbbd4189ebe","type":"Feature","geometry":{"type":"Point","coordinates":[67.81997623,34.80913742]},"properties":{"placename":"الباميان","hebrewname":"אלבאמיאנ","englishname":"albamyan","count":2,"type":"PLACE"}},{"_id":"611daa7d5f9d5cbbd4189ebf","type":"Feature","geometry":{"type":"Point","coordinates":[70.10211,36.81665]},"properties":{"placename":"مشهد","hebrewname":"משהד","englishname":"mshhd","count":26,"type":"PLACE"}},{"_id":"611daa7d5f9d5cbbd4189ec0","type":"Feature","geometry":{"type":"Point","coordinates":[3.04197,36.7525]},"properties":{"placename":"والجزائر","hebrewname":"ואלגזאאר","englishname":"oaljzaar","count":2,"type":"PLACE"}},{"_id":"611daa7d5f9d5cbbd4189ec1","type":"Feature","geometry":{"type":"Point","coordinates":[8.127908048,33.92237916]},"properties":{"placename":"توزر","hebrewname":"תוזר","englishname":"tozr","count":8,"type":"PLACE"}},{"_id":"611daa7d5f9d5cbbd4189ec2","type":"Feature","geometry":{"type":"Point","coordinates":[15.12238012,26.16768511]},"properties":{"placename":"زويلة","hebrewname":"זוילה","englishname":"zoylah","count":9,"type":"PLACE"}},{"_id":"611daa7d5f9d5cbbd4189ec3","type":"Feature","geometry":{"type":"Point","coordinates":[44.51401311,15.88384099]},"properties":{"placename":"حمير","hebrewname":"חמיר","englishname":"Hmyr","count":31,"type":"PLACE"}},{"_id":"611daa7d5f9d5cbbd4189ec4","type":"Feature","geometry":{"type":"Point","coordinates":[69.36881,33.69056]},"properties":{"placename":"كرم","hebrewname":"כרמ","englishname":"krm","count":83,"type":"PLACE"}},{"_id":"611daa7d5f9d5cbbd4189ec5","type":"Feature","geometry":{"type":"Point","coordinates":[10.09775179,35.67311398]},"properties":{"placename":"قيروان","hebrewname":"קירואנ","englishname":"qyroan","count":13,"type":"PLACE"}},{"_id":"611daa7d5f9d5cbbd4189ec6","type":"Feature","geometry":{"type":"Point","coordinates":[3.2252,51.2094]},"properties":{"placename":"بروج","hebrewname":"ברוג","englishname":"broj","count":4,"type":"PLACE"}},{"_id":"611daa7d5f9d5cbbd4189ec7","type":"Feature","geometry":{"type":"Point","coordinates":[35.24227,31.71749]},"properties":{"placename":"النعمان","hebrewname":"אלנעמאנ","englishname":"alnaman","count":40,"type":"PLACE"}},{"_id":"611daa7d5f9d5cbbd4189ec8","type":"Feature","geometry":{"type":"Point","coordinates":[44.23298953,33.85049724]},"properties":{"placename":"دجيل","hebrewname":"דגיל","englishname":"djyl","count":1,"type":"PLACE"}},{"_id":"611daa7d5f9d5cbbd4189ec9","type":"Feature","geometry":{"type":"Point","coordinates":[44.76965319,33.40206049]},"properties":{"placename":"برقعيد","hebrewname":"ברקעיד","englishname":"brqayd","count":6,"type":"PLACE"}},{"_id":"611daa7d5f9d5cbbd4189eca","type":"Feature","geometry":{"type":"Point","coordinates":[45.0650451,31.87305046]},"properties":{"placename":"القادسية","hebrewname":"אלקאדסיה","englishname":"alqadsyah","count":4,"type":"PLACE"}},{"_id":"611daa7d5f9d5cbbd4189ecb","type":"Feature","geometry":{"type":"Point","coordinates":[55.54178947,36.59432288]},"properties":{"placename":"جيلان","hebrewname":"גילאנ","englishname":"jylan","count":3,"type":"PLACE"}},{"_id":"611daa7d5f9d5cbbd4189ecc","type":"Feature","geometry":{"type":"Point","coordinates":[50.5487711,26.05131104]},"properties":{"placename":"مملكة","hebrewname":"ממלכה","englishname":"mmlkah","count":19,"type":"PLACE"}},{"_id":"611daa7d5f9d5cbbd4189ecd","type":"Feature","geometry":{"type":"Point","coordinates":[36.20486985,36.95370715]},"properties":{"placename":"أرزن","hebrewname":"ארזנ","englishname":"Arzn","count":5,"type":"PLACE"}},{"_id":"611daa7d5f9d5cbbd4189ece","type":"Feature","geometry":{"type":"Point","coordinates":[0.576065028,40.88978069]},"properties":{"placename":"طرطوشة","hebrewname":"טרטושה","englishname":"TrToshah","count":3,"type":"PLACE"}},{"_id":"611daa7d5f9d5cbbd4189ecf","type":"Feature","geometry":{"type":"Point","coordinates":[35.00783517,29.54513918]},"properties":{"placename":"أيلة","hebrewname":"אילה","englishname":"Aylah","count":2,"type":"PLACE"}},{"_id":"611daa7d5f9d5cbbd4189ed0","type":"Feature","geometry":{"type":"Point","coordinates":[-4.075893369,35.12643363]},"properties":{"placename":"الريف","hebrewname":"אלריפ","englishname":"alryf","count":1,"type":"PLACE"}},{"_id":"611daa7d5f9d5cbbd4189ed1","type":"Feature","geometry":{"type":"Point","coordinates":[37.39077,11.59364]},"properties":{"placename":"بحر","hebrewname":"בחר","englishname":"bHr","count":319,"type":"PLACE"}},{"_id":"611daa7d5f9d5cbbd4189ed2","type":"Feature","geometry":{"type":"Point","coordinates":[-1.242789756,7.996403085]},"properties":{"placename":"غانة","hebrewname":"עאנה","englishname":"ganah","count":9,"type":"PLACE"}},{"_id":"611daa7d5f9d5cbbd4189ed3","type":"Feature","geometry":{"type":"Point","coordinates":[45.37223673,2.079442095]},"properties":{"placename":"مقدشو","hebrewname":"מקדשו","englishname":"mqdsho","count":1,"type":"PLACE"}},{"_id":"611daa7d5f9d5cbbd4189ed4","type":"Feature","geometry":{"type":"Point","coordinates":[31.24069,30.9616]},"properties":{"placename":"سمنود","hebrewname":"סמנוד","englishname":"smnod","count":1,"type":"PLACE"}},{"_id":"611daa7d5f9d5cbbd4189ed5","type":"Feature","geometry":{"type":"Point","coordinates":[52.90922,29.98133]},"properties":{"placename":"إصطخر","hebrewname":"איצטחר","englishname":"ASTxr","count":3,"type":"PLACE"}},{"_id":"611daa7d5f9d5cbbd4189ed6","type":"Feature","geometry":{"type":"Point","coordinates":[51.65415,29.61949]},"properties":{"placename":"كازرون","hebrewname":"כאזרונ","englishname":"kazron","count":3,"type":"PLACE"}},{"_id":"611daa7d5f9d5cbbd4189ed7","type":"Feature","geometry":{"type":"Point","coordinates":[52.3423283,27.66799657]},"properties":{"placename":"سيراف","hebrewname":"סיראפ","englishname":"syraf","count":5,"type":"PLACE"}},{"_id":"611daa7d5f9d5cbbd4189ed8","type":"Feature","geometry":{"type":"Point","coordinates":[37.5157,36.37051]},"properties":{"placename":"الباب","hebrewname":"אלבאב","englishname":"albab","count":52,"type":"PLACE"}},{"_id":"611daa7d5f9d5cbbd4189ed9","type":"Feature","geometry":{"type":"Point","coordinates":[-5.574627752,34.80867062]},"properties":{"placename":"وزان","hebrewname":"וזאנ","englishname":"ozan","count":3,"type":"PLACE"}},{"_id":"611daa7d5f9d5cbbd4189eda","type":"Feature","geometry":{"type":"Point","coordinates":[61.08990615,41.2989575]},"properties":{"placename":"هزاراسب","hebrewname":"הזאראסב","englishname":"hzarasb","count":2,"type":"PLACE"}},{"_id":"611daa7d5f9d5cbbd4189edb","type":"Feature","geometry":{"type":"Point","coordinates":[51.06974404,25.19051951]},"properties":{"placename":"الريان","hebrewname":"אלריאנ","englishname":"alryan","count":1,"type":"PLACE"}},{"_id":"611daa7d5f9d5cbbd4189edc","type":"Feature","geometry":{"type":"Point","coordinates":[51.19994657,25.30712791]},"properties":{"placename":"قطر","hebrewname":"קטר","englishname":"qTr","count":26,"type":"PLACE"}},{"_id":"611daa7d5f9d5cbbd4189edd","type":"Feature","geometry":{"type":"Point","coordinates":[28.89129435,41.15442919]},"properties":{"placename":"قسطنطينية","hebrewname":"קסטנטיניה","englishname":"qsTnTynyah","count":12,"type":"PLACE"}},{"_id":"611daa7d5f9d5cbbd4189ede","type":"Feature","geometry":{"type":"Point","coordinates":[46.39608975,35.86185667]},"properties":{"placename":"بسطام","hebrewname":"בסטאמ","englishname":"bsTam","count":9,"type":"PLACE"}},{"_id":"611daa7d5f9d5cbbd4189edf","type":"Feature","geometry":{"type":"Point","coordinates":[44.66626726,33.38488902]},"properties":{"placename":"النهروان","hebrewname":"אלנהרואנ","englishname":"alnhroan","count":3,"type":"PLACE"}},{"_id":"611daa7d5f9d5cbbd4189ee0","type":"Feature","geometry":{"type":"Point","coordinates":[35.20422,31.89964]},"properties":{"placename":"الله","hebrewname":"אללה","englishname":"allh","count":1189,"type":"PLACE"}},{"_id":"611daa7d5f9d5cbbd4189ee1","type":"Feature","geometry":{"type":"Point","coordinates":[67.41315,32.52154]},"properties":{"placename":"شاه","hebrewname":"שאה","englishname":"shah","count":132,"type":"PLACE"}},{"_id":"611daa7d5f9d5cbbd4189ee2","type":"Feature","geometry":{"type":"Point","coordinates":[49.87140597,31.82596848]},"properties":{"placename":"إيذج","hebrewname":"איידג","englishname":"AyVj","count":2,"type":"PLACE"}},{"_id":"611daa7d5f9d5cbbd4189ee3","type":"Feature","geometry":{"type":"Point","coordinates":[48.12600532,40.26328052]},"properties":{"placename":"اذربيجان","hebrewname":"אדרביגאנ","englishname":"aVrbyjan","count":5,"type":"PLACE"}},{"_id":"611daa7d5f9d5cbbd4189ee4","type":"Feature","geometry":{"type":"Point","coordinates":[36.0835,34.99174]},"properties":{"placename":"بدر","hebrewname":"בדר","englishname":"bdr","count":24,"type":"PLACE"}},{"_id":"611daa7d5f9d5cbbd4189ee5","type":"Feature","geometry":{"type":"Point","coordinates":[63.60720018,28.80233889]},"properties":{"placename":"الديبل","hebrewname":"אלדיבל","englishname":"aldybl","count":1,"type":"PLACE"}},{"_id":"611daa7d5f9d5cbbd4189ee6","type":"Feature","geometry":{"type":"Point","coordinates":[36.33076,33.47101]},"properties":{"placename":"باب","hebrewname":"באב","englishname":"bab","count":340,"type":"PLACE"}},{"_id":"611daa7d5f9d5cbbd4189ee7","type":"Feature","geometry":{"type":"Point","coordinates":[36.61619173,22.23333684]},"properties":{"placename":"عيذاب","hebrewname":"עידאב","englishname":"ayVab","count":1,"type":"PLACE"}},{"_id":"611daa7d5f9d5cbbd4189ee8","type":"Feature","geometry":{"type":"Point","coordinates":[35.47895,30.32096]},"properties":{"placename":"موسى","hebrewname":"מוסא","englishname":"mosa","count":66,"type":"PLACE"}},{"_id":"611daa7d5f9d5cbbd4189ee9","type":"Feature","geometry":{"type":"Point","coordinates":[36.13045457,33.99045457]},"properties":{"placename":"البقاع","hebrewname":"אלבקאע","englishname":"albqaa","count":1,"type":"PLACE"}},{"_id":"611daa7d5f9d5cbbd4189eea","type":"Feature","geometry":{"type":"Point","coordinates":[1.19616,36.41657]},"properties":{"placename":"الحسن","hebrewname":"אלחסנ","englishname":"alHsn","count":109,"type":"PLACE"}},{"_id":"611daa7d5f9d5cbbd4189eeb","type":"Feature","geometry":{"type":"Point","coordinates":[43.94385,15.6594]},"properties":{"placename":"عمران","hebrewname":"עמראנ","englishname":"amran","count":18,"type":"PLACE"}},{"_id":"611daa7d5f9d5cbbd4189eec","type":"Feature","geometry":{"type":"Point","coordinates":[44.14574,34.01485]},"properties":{"placename":"بلد","hebrewname":"בלד","englishname":"bld","count":115,"type":"PLACE"}},{"_id":"611daa7d5f9d5cbbd4189eed","type":"Feature","geometry":{"type":"Point","coordinates":[52.68691043,29.21294878]},"properties":{"placename":"كوار","hebrewname":"כואר","englishname":"koar","count":3,"type":"PLACE"}},{"_id":"611daa7d5f9d5cbbd4189eee","type":"Feature","geometry":{"type":"Point","coordinates":[35.00778,29.52667]},"properties":{"placename":"عقبة","hebrewname":"עקבה","englishname":"aqbah","count":16,"type":"PLACE"}},{"_id":"611daa7d5f9d5cbbd4189eef","type":"Feature","geometry":{"type":"Point","coordinates":[35.24224889,32.59657171]},"properties":{"placename":"عامر","hebrewname":"עאמר","englishname":"aamr","count":26,"type":"PLACE"}},{"_id":"611daa7d5f9d5cbbd4189ef0","type":"Feature","geometry":{"type":"Point","coordinates":[53.09258931,27.57421533]},"properties":{"placename":"جور","hebrewname":"גור","englishname":"jor","count":27,"type":"PLACE"}},{"_id":"611daa7d5f9d5cbbd4189ef1","type":"Feature","geometry":{"type":"Point","coordinates":[36.03825,35.78656]},"properties":{"placename":"ربيعة","hebrewname":"רביעה","englishname":"rbyaah","count":4,"type":"PLACE"}},{"_id":"611daa7d5f9d5cbbd4189ef2","type":"Feature","geometry":{"type":"Point","coordinates":[39.82171654,21.4298898]},"properties":{"placename":"قبيس","hebrewname":"קביס","englishname":"qbys","count":3,"type":"PLACE"}},{"_id":"611daa7d5f9d5cbbd4189ef3","type":"Feature","geometry":{"type":"Point","coordinates":[35.88466,32.48268]},"properties":{"placename":"الحصن","hebrewname":"אלחצנ","englishname":"alHSn","count":16,"type":"PLACE"}},{"_id":"611daa7d5f9d5cbbd4189ef4","type":"Feature","geometry":{"type":"Point","coordinates":[44.09208,13.33005]},"properties":{"placename":"العين","hebrewname":"אלעינ","englishname":"alayn","count":45,"type":"PLACE"}},{"_id":"611daa7d5f9d5cbbd4189ef5","type":"Feature","geometry":{"type":"Point","coordinates":[44.99309,12.87678]},"properties":{"placename":"عثمان","hebrewname":"עתמאנ","englishname":"avman","count":23,"type":"PLACE"}},{"_id":"611daa7d5f9d5cbbd4189ef6","type":"Feature","geometry":{"type":"Point","coordinates":[39.8262,21.42249]},"properties":{"placename":"منى","hebrewname":"מנא","englishname":"mna","count":19,"type":"PLACE"}},{"_id":"611daa7d5f9d5cbbd4189ef7","type":"Feature","geometry":{"type":"Point","coordinates":[47.70175,30.39213]},"properties":{"placename":"الزبير","hebrewname":"אלזביר","englishname":"alzbyr","count":15,"type":"PLACE"}},{"_id":"611daa7d5f9d5cbbd4189ef8","type":"Feature","geometry":{"type":"Point","coordinates":[46.74928,32.12287]},"properties":{"placename":"الشرقي","hebrewname":"אלשרקי","englishname":"alshrqy","count":18,"type":"PLACE"}},{"_id":"611daa7d5f9d5cbbd4189ef9","type":"Feature","geometry":{"type":"Point","coordinates":[36.2419,33.3581]},"properties":{"placename":"الكسوة","hebrewname":"אלכסוה","englishname":"alksoah","count":2,"type":"PLACE"}},{"_id":"611daa7d5f9d5cbbd4189efa","type":"Feature","geometry":{"type":"Point","coordinates":[39.82381819,21.38875785]},"properties":{"placename":"زمزم","hebrewname":"זמזמ","englishname":"zmzm","count":8,"type":"PLACE"}},{"_id":"611daa7d5f9d5cbbd4189efb","type":"Feature","geometry":{"type":"Point","coordinates":[39.82753687,21.42242928]},"properties":{"placename":"الصفا","hebrewname":"אלצפא","englishname":"alSfa","count":25,"type":"PLACE"}},{"_id":"611daa7d5f9d5cbbd4189efc","type":"Feature","geometry":{"type":"Point","coordinates":[30.86389362,30.83530468]},"properties":{"placename":"أبيار","hebrewname":"אביאר","englishname":"Abyar","count":1,"type":"PLACE"}},{"_id":"611daa7d5f9d5cbbd4189efd","type":"Feature","geometry":{"type":"Point","coordinates":[50.23599324,30.5933253]},"properties":{"placename":"أرجان","hebrewname":"ארגאנ","englishname":"Arjan","count":5,"type":"PLACE"}},{"_id":"611daa7d5f9d5cbbd4189efe","type":"Feature","geometry":{"type":"Point","coordinates":[-2.47278,42.35837]},"properties":{"placename":"البيضاء","hebrewname":"אלבידאא","englishname":"albyDaa","count":4,"type":"PLACE"}},{"_id":"611daa7d5f9d5cbbd4189eff","type":"Feature","geometry":{"type":"Point","coordinates":[8.75801,36.95442]},"properties":{"placename":"طبرقة","hebrewname":"טברקה","englishname":"Tbrqah","count":1,"type":"PLACE"}},{"_id":"611daa7d5f9d5cbbd4189f00","type":"Feature","geometry":{"type":"Point","coordinates":[51.65415,29.61949]},"properties":{"placename":"جنابة","hebrewname":"גנאבה","englishname":"jnabah","count":1,"type":"PLACE"}},{"_id":"611daa7d5f9d5cbbd4189f01","type":"Feature","geometry":{"type":"Point","coordinates":[44.12977327,35.75707166]},"properties":{"placename":"بردى","hebrewname":"ברדא","englishname":"brda","count":1,"type":"PLACE"}},{"_id":"611daa7d5f9d5cbbd4189f02","type":"Feature","geometry":{"type":"Point","coordinates":[48.6842,31.31901]},"properties":{"placename":"سابور","hebrewname":"סאבור","englishname":"sabor","count":45,"type":"PLACE"}},{"_id":"611daa7d5f9d5cbbd4189f03","type":"Feature","geometry":{"type":"Point","coordinates":[44.29966,13.18179]},"properties":{"placename":"طور","hebrewname":"טור","englishname":"Tor","count":17,"type":"PLACE"}},{"_id":"611daa7d5f9d5cbbd4189f04","type":"Feature","geometry":{"type":"Point","coordinates":[31.86622533,31.41247797]},"properties":{"placename":"شطا","hebrewname":"שטא","englishname":"shTa","count":1,"type":"PLACE"}},{"_id":"611daa7d5f9d5cbbd4189f05","type":"Feature","geometry":{"type":"Point","coordinates":[35.08331001,32.92582813]},"properties":{"placename":"عكة","hebrewname":"עכה","englishname":"akah","count":10,"type":"PLACE"}},{"_id":"611daa7d5f9d5cbbd4189f06","type":"Feature","geometry":{"type":"Point","coordinates":[35.89158,33.18378]},"properties":{"placename":"خان","hebrewname":"חאנ","englishname":"xan","count":53,"type":"PLACE"}},{"_id":"611daa7d5f9d5cbbd4189f07","type":"Feature","geometry":{"type":"Point","coordinates":[65.25093,34.51952]},"properties":{"placename":"فيروز","hebrewname":"פירוז","englishname":"fyroz","count":18,"type":"PLACE"}},{"_id":"611daa7d5f9d5cbbd4189f08","type":"Feature","geometry":{"type":"Point","coordinates":[54.3675,31.89722]},"properties":{"placename":"يزد","hebrewname":"יזד","englishname":"yzd","count":11,"type":"PLACE"}},{"_id":"611daa7d5f9d5cbbd4189f09","type":"Feature","geometry":{"type":"Point","coordinates":[35.31398987,32.36424293]},"properties":{"placename":"صير","hebrewname":"ציר","englishname":"Syr","count":104,"type":"PLACE"}},{"_id":"611daa7d5f9d5cbbd4189f0a","type":"Feature","geometry":{"type":"Point","coordinates":[56.44972435,27.07311976]},"properties":{"placename":"هرمز","hebrewname":"הרמז","englishname":"hrmz","count":3,"type":"PLACE"}},{"_id":"611daa7d5f9d5cbbd4189f0b","type":"Feature","geometry":{"type":"Point","coordinates":[50.86444,32.32556]},"properties":{"placename":"كرد","hebrewname":"כרד","englishname":"krd","count":9,"type":"PLACE"}},{"_id":"611daa7d5f9d5cbbd4189f0c","type":"Feature","geometry":{"type":"Point","coordinates":[10.10613432,33.88727481]},"properties":{"placename":"نفزاوة","hebrewname":"נפזאוה","englishname":"nfzaoah","count":1,"type":"PLACE"}},{"_id":"611daa7d5f9d5cbbd4189f0d","type":"Feature","geometry":{"type":"Point","coordinates":[16.13904,29.1614]},"properties":{"placename":"ودان","hebrewname":"ודאנ","englishname":"odan","count":28,"type":"PLACE"}},{"_id":"611daa7d5f9d5cbbd4189f0e","type":"Feature","geometry":{"type":"Point","coordinates":[-9.389296349,30.90415153]},"properties":{"placename":"جرار","hebrewname":"גראר","englishname":"jrar","count":13,"type":"PLACE"}},{"_id":"611daa7d5f9d5cbbd4189f0f","type":"Feature","geometry":{"type":"Point","coordinates":[69.83045,37.12604]},"properties":{"placename":"رستاق","hebrewname":"רסתאק","englishname":"rstaq","count":12,"type":"PLACE"}},{"_id":"611daa7d5f9d5cbbd4189f10","type":"Feature","geometry":{"type":"Point","coordinates":[38.04165,35.96577]},"properties":{"placename":"بالس","hebrewname":"באלס","englishname":"bals","count":50,"type":"PLACE"}},{"_id":"611daa7d5f9d5cbbd4189f11","type":"Feature","geometry":{"type":"Point","coordinates":[30.41424186,31.3938327]},"properties":{"placename":"رشيد","hebrewname":"רשיד","englishname":"rshyd","count":54,"type":"PLACE"}},{"_id":"611daa7d5f9d5cbbd4189f12","type":"Feature","geometry":{"type":"Point","coordinates":[57.68920674,36.24591046]},"properties":{"placename":"بيهق","hebrewname":"ביהק","englishname":"byhq","count":6,"type":"PLACE"}},{"_id":"611daa7d5f9d5cbbd4189f13","type":"Feature","geometry":{"type":"Point","coordinates":[51.43997,35.59354]},"properties":{"placename":"الري","hebrewname":"אלרי","englishname":"alry","count":135,"type":"PLACE"}},{"_id":"611daa7d5f9d5cbbd4189f14","type":"Feature","geometry":{"type":"Point","coordinates":[46.52393871,34.11455538]},"properties":{"placename":"راوند","hebrewname":"ראונד","englishname":"raond","count":4,"type":"PLACE"}},{"_id":"611daa7d5f9d5cbbd4189f15","type":"Feature","geometry":{"type":"Point","coordinates":[47.95207905,36.07078101]},"properties":{"placename":"شيرين","hebrewname":"שירינ","englishname":"shyryn","count":25,"type":"PLACE"}},{"_id":"611daa7d5f9d5cbbd4189f16","type":"Feature","geometry":{"type":"Point","coordinates":[44.61042635,33.75205592]},"properties":{"placename":"جرجرايا","hebrewname":"גרגראיא","englishname":"jrjraya","count":1,"type":"PLACE"}},{"_id":"611daa7d5f9d5cbbd4189f17","type":"Feature","geometry":{"type":"Point","coordinates":[42.73395,35.5729]},"properties":{"placename":"الحضر","hebrewname":"אלחדר","englishname":"alHDr","count":6,"type":"PLACE"}},{"_id":"611daa7d5f9d5cbbd4189f18","type":"Feature","geometry":{"type":"Point","coordinates":[42.5,17.5]},"properties":{"placename":"بيش","hebrewname":"ביש","englishname":"bysh","count":3,"type":"PLACE"}},{"_id":"611daa7d5f9d5cbbd4189f19","type":"Feature","geometry":{"type":"Point","coordinates":[48.33485122,38.25398424]},"properties":{"placename":"بست","hebrewname":"בסת","englishname":"bst","count":48,"type":"PLACE"}},{"_id":"611daa7d5f9d5cbbd4189f1a","type":"Feature","geometry":{"type":"Point","coordinates":[44.29005,32.77872]},"properties":{"placename":"المسيب","hebrewname":"אלמסיב","englishname":"almsyb","count":3,"type":"PLACE"}},{"_id":"611daa7d5f9d5cbbd4189f1b","type":"Feature","geometry":{"type":"Point","coordinates":[48.4409523,36.07209933]},"properties":{"placename":"سهرورد","hebrewname":"סהרורד","englishname":"shrord","count":4,"type":"PLACE"}},{"_id":"611daa7d5f9d5cbbd4189f1c","type":"Feature","geometry":{"type":"Point","coordinates":[31.305179,30.129369]},"properties":{"placename":"شمس","hebrewname":"שמס","englishname":"shms","count":78,"type":"PLACE"}},{"_id":"611daa7d5f9d5cbbd4189f1d","type":"Feature","geometry":{"type":"Point","coordinates":[41.98605529,34.37291123]},"properties":{"placename":"عانة","hebrewname":"עאנה","englishname":"aanah","count":7,"type":"PLACE"}},{"_id":"611daa7d5f9d5cbbd4189f1e","type":"Feature","geometry":{"type":"Point","coordinates":[38.49238025,37.60585123]},"properties":{"placename":"سميساط","hebrewname":"סמיסאט","englishname":"smysaT","count":1,"type":"PLACE"}},{"_id":"611daa7d5f9d5cbbd4189f1f","type":"Feature","geometry":{"type":"Point","coordinates":[41.45791569,30.53675562]},"properties":{"placename":"كران","hebrewname":"כראנ","englishname":"kran","count":14,"type":"PLACE"}},{"_id":"611daa7d5f9d5cbbd4189f20","type":"Feature","geometry":{"type":"Point","coordinates":[72.56713274,40.86578872]},"properties":{"placename":"كسكر","hebrewname":"כסכר","englishname":"kskr","count":4,"type":"PLACE"}},{"_id":"611daa7d5f9d5cbbd4189f21","type":"Feature","geometry":{"type":"Point","coordinates":[31.50671756,30.42158569]},"properties":{"placename":"الجوسق","hebrewname":"אלגוסק","englishname":"aljosq","count":1,"type":"PLACE"}},{"_id":"611daa7d5f9d5cbbd4189f22","type":"Feature","geometry":{"type":"Point","coordinates":[35.18688,31.63406]},"properties":{"placename":"رباح","hebrewname":"רבאח","englishname":"rbaH","count":1,"type":"PLACE"}},{"_id":"611daa7d5f9d5cbbd4189f23","type":"Feature","geometry":{"type":"Point","coordinates":[47.1407884,40.36994644]},"properties":{"placename":"برذعة","hebrewname":"ברדעה","englishname":"brVaah","count":10,"type":"PLACE"}},{"_id":"611daa7d5f9d5cbbd4189f24","type":"Feature","geometry":{"type":"Point","coordinates":[48.91993562,39.9279765]},"properties":{"placename":"شروان","hebrewname":"שרואנ","englishname":"shroan","count":35,"type":"PLACE"}},{"_id":"611daa7d5f9d5cbbd4189f25","type":"Feature","geometry":{"type":"Point","coordinates":[35.9201778,31.95719553]},"properties":{"placename":"الربض","hebrewname":"אלרבד","englishname":"alrbD","count":1,"type":"PLACE"}},{"_id":"611daa7d5f9d5cbbd4189f26","type":"Feature","geometry":{"type":"Point","coordinates":[44.28066037,40.24213682]},"properties":{"placename":"قاليقلا","hebrewname":"קאליקלא","englishname":"qalyqla","count":2,"type":"PLACE"}},{"_id":"611daa7d5f9d5cbbd4189f27","type":"Feature","geometry":{"type":"Point","coordinates":[35.62509596,36.96168437]},"properties":{"placename":"المصيصة","hebrewname":"אלמציצה","englishname":"almSySah","count":2,"type":"PLACE"}},{"_id":"611daa7d5f9d5cbbd4189f28","type":"Feature","geometry":{"type":"Point","coordinates":[37.00472,35.59011]},"properties":{"placename":"سنجار ","hebrewname":"סנגאר ","englishname":"snjar ","count":5,"type":"PLACE"}},{"_id":"611daa7d5f9d5cbbd4189f29","type":"Feature","geometry":{"type":"Point","coordinates":[37.37402,35.26375]},"properties":{"placename":"السن ","hebrewname":"אלסנ ","englishname":"alsn ","count":1,"type":"PLACE"}},{"_id":"611daa7d5f9d5cbbd4189f2a","type":"Feature","geometry":{"type":"Point","coordinates":[42.47463029,36.02265052]},"properties":{"placename":"الموصل ","hebrewname":"אלמוצל ","englishname":"almoSl ","count":18,"type":"PLACE"}},{"_id":"611daa7d5f9d5cbbd4189f2b","type":"Feature","geometry":{"type":"Point","coordinates":[47.21889503,40.20880204]},"properties":{"placename":"باجروان","hebrewname":"באגרואנ","englishname":"bajroan","count":1,"type":"PLACE"}},{"_id":"611daa7d5f9d5cbbd4189f2c","type":"Feature","geometry":{"type":"Point","coordinates":[48.09472,29.14583]},"properties":{"placename":"الرقة ","hebrewname":"אלרקה ","englishname":"alrqah ","count":2,"type":"PLACE"}},{"_id":"611daa7d5f9d5cbbd4189f2d","type":"Feature","geometry":{"type":"Point","coordinates":[42.82768,33.63664]},"properties":{"placename":" هيت","hebrewname":" הית","englishname":" hyt","count":3,"type":"PLACE"}},{"_id":"611daa7d5f9d5cbbd4189f2e","type":"Feature","geometry":{"type":"Point","coordinates":[56.69676048,27.36317193]},"properties":{"placename":"جلاب ","hebrewname":"גלאב ","englishname":"jlab ","count":1,"type":"PLACE"}},{"_id":"611daa7d5f9d5cbbd4189f2f","type":"Feature","geometry":{"type":"Point","coordinates":[44.14574,34.01485]},"properties":{"placename":"بلد ","hebrewname":"בלד ","englishname":"bld ","count":27,"type":"PLACE"}},{"_id":"611daa7d5f9d5cbbd4189f30","type":"Feature","geometry":{"type":"Point","coordinates":[42.82768,33.63664]},"properties":{"placename":"هيت ","hebrewname":"הית ","englishname":"hyt ","count":7,"type":"PLACE"}},{"_id":"611daa7d5f9d5cbbd4189f31","type":"Feature","geometry":{"type":"Point","coordinates":[2.75696724,35.88936293]},"properties":{"placename":"أشير","hebrewname":"אשיר","englishname":"Ashyr","count":1,"type":"PLACE"}},{"_id":"611daa7d5f9d5cbbd4189f32","type":"Feature","geometry":{"type":"Point","coordinates":[49.17416077,30.14241624]},"properties":{"placename":"بونة","hebrewname":"בונה","englishname":"bonah","count":5,"type":"PLACE"}},{"_id":"611daa7d5f9d5cbbd4189f33","type":"Feature","geometry":{"type":"Point","coordinates":[-9.510772875,30.36088862]},"properties":{"placename":"سوس","hebrewname":"סוס","englishname":"sos","count":24,"type":"PLACE"}},{"_id":"611daa7d5f9d5cbbd4189f34","type":"Feature","geometry":{"type":"Point","coordinates":[-9.637714002,30.00164892]},"properties":{"placename":"ماسة","hebrewname":"מאסה","englishname":"masah","count":5,"type":"PLACE"}},{"_id":"611daa7d5f9d5cbbd4189f35","type":"Feature","geometry":{"type":"Point","coordinates":[-4.42663,31.9314]},"properties":{"placename":"زيز","hebrewname":"זיז","englishname":"zyz","count":22,"type":"PLACE"}},{"_id":"611daa7d5f9d5cbbd4189f36","type":"Feature","geometry":{"type":"Point","coordinates":[4.666033401,36.13940594]},"properties":{"placename":"مجانة","hebrewname":"מגאנה","englishname":"mjanah","count":1,"type":"PLACE"}},{"_id":"611daa7d5f9d5cbbd4189f37","type":"Feature","geometry":{"type":"Point","coordinates":[21.49888035,29.04051879]},"properties":{"placename":"جالو","hebrewname":"גאלו","englishname":"jalo","count":3,"type":"PLACE"}},{"_id":"611daa7d5f9d5cbbd4189f38","type":"Feature","geometry":{"type":"Point","coordinates":[13.18885069,32.87623208]},"properties":{"placename":"اطرابلس","hebrewname":"אטראבלס","englishname":"aTrabls","count":1,"type":"PLACE"}},{"_id":"611daa7d5f9d5cbbd4189f39","type":"Feature","geometry":{"type":"Point","coordinates":[36.15722,36.20655]},"properties":{"placename":" أنطاكية","hebrewname":" אנטאכיה","englishname":" AnTakyah","count":2,"type":"PLACE"}},{"_id":"611daa7d5f9d5cbbd4189f3a","type":"Feature","geometry":{"type":"Point","coordinates":[38.04165,35.96577]},"properties":{"placename":" بالس","hebrewname":" באלס","englishname":" bals","count":41,"type":"PLACE"}},{"_id":"611daa7d5f9d5cbbd4189f3b","type":"Feature","geometry":{"type":"Point","coordinates":[38.29824515,34.33814673]},"properties":{"placename":" حمص","hebrewname":" חמצ","englishname":" HmS","count":7,"type":"PLACE"}},{"_id":"611daa7d5f9d5cbbd4189f3c","type":"Feature","geometry":{"type":"Point","coordinates":[37.95495,36.52815]},"properties":{"placename":" منبج","hebrewname":" מנבג","englishname":" mnbj","count":2,"type":"PLACE"}},{"_id":"611daa7d5f9d5cbbd4189f3d","type":"Feature","geometry":{"type":"Point","coordinates":[59.52889,22.56667]},"properties":{"placename":" صور","hebrewname":" צור","englishname":" Sor","count":113,"type":"PLACE"}},{"_id":"611daa7d5f9d5cbbd4189f3e","type":"Feature","geometry":{"type":"Point","coordinates":[35.53124,32.79221]},"properties":{"placename":" طبرية","hebrewname":" טבריה","englishname":" Tbryah","count":14,"type":"PLACE"}},{"_id":"611daa7d5f9d5cbbd4189f3f","type":"Feature","geometry":{"type":"Point","coordinates":[36.21806,34.00583]},"properties":{"placename":" بعلبك","hebrewname":" בעלבכ","englishname":" balbk","count":1,"type":"PLACE"}},{"_id":"611daa7d5f9d5cbbd4189f40","type":"Feature","geometry":{"type":"Point","coordinates":[36.27793722,33.51557549]},"properties":{"placename":" دمشق","hebrewname":" דמשק","englishname":" dmshq","count":34,"type":"PLACE"}},{"_id":"611daa7d5f9d5cbbd4189f41","type":"Feature","geometry":{"type":"Point","coordinates":[35.73405,30.19624]},"properties":{"placename":" معان","hebrewname":" מעאנ","englishname":" maan","count":1,"type":"PLACE"}},{"_id":"611daa7d5f9d5cbbd4189f42","type":"Feature","geometry":{"type":"Point","coordinates":[35.25444,32.22111]},"properties":{"placename":" نابلس","hebrewname":" נאבלס","englishname":" nabls","count":5,"type":"PLACE"}},{"_id":"611daa7d5f9d5cbbd4189f43","type":"Feature","geometry":{"type":"Point","coordinates":[38.28402,34.5624]},"properties":{"placename":" تدمر","hebrewname":" תדמר","englishname":" tdmr","count":5,"type":"PLACE"}},{"_id":"611daa7d5f9d5cbbd4189f44","type":"Feature","geometry":{"type":"Point","coordinates":[37.59952067,36.23280127]},"properties":{"placename":" حلب","hebrewname":" חלב","englishname":" Hlb","count":19,"type":"PLACE"}},{"_id":"611daa7d5f9d5cbbd4189f45","type":"Feature","geometry":{"type":"Point","coordinates":[34.7980796,29.7906778]},"properties":{"placename":" مدين","hebrewname":" מדינ","englishname":" mdyn","count":371,"type":"PLACE"}},{"_id":"611daa7d5f9d5cbbd4189f46","type":"Feature","geometry":{"type":"Point","coordinates":[37.29440343,27.38262207]},"properties":{"placename":" تبوك","hebrewname":" תבוכ","englishname":" tbok","count":2,"type":"PLACE"}},{"_id":"611daa7d5f9d5cbbd4189f47","type":"Feature","geometry":{"type":"Point","coordinates":[69.20730699,34.55225588]},"properties":{"placename":" كابل","hebrewname":" כאבל","englishname":" kabl","count":3,"type":"PLACE"}},{"_id":"611daa7d5f9d5cbbd4189f48","type":"Feature","geometry":{"type":"Point","coordinates":[35.23333333,31.78333333]},"properties":{"placename":" قدس","hebrewname":" קדס","englishname":" qds","count":1,"type":"PLACE"}},{"_id":"611daa7d5f9d5cbbd4189f49","type":"Feature","geometry":{"type":"Point","coordinates":[35.94871,35.18188]},"properties":{"placename":" بانياس","hebrewname":" באניאס","englishname":" banyas","count":1,"type":"PLACE"}},{"_id":"611daa7d5f9d5cbbd4189f4a","type":"Feature","geometry":{"type":"Point","coordinates":[56.05285212,20.55560458]},"properties":{"placename":" عمان","hebrewname":" עמאנ","englishname":" aman","count":9,"type":"PLACE"}},{"_id":"611daa7d5f9d5cbbd4189f4b","type":"Feature","geometry":{"type":"Point","coordinates":[34.893068,31.950908]},"properties":{"placename":" لد","hebrewname":" לד","englishname":" ld","count":39,"type":"PLACE"}},{"_id":"611daa7d5f9d5cbbd4189f4c","type":"Feature","geometry":{"type":"Point","coordinates":[36.13045457,33.99045457]},"properties":{"placename":" البقاع","hebrewname":" אלבקאע","englishname":" albqaa","count":1,"type":"PLACE"}},{"_id":"611daa7d5f9d5cbbd4189f4d","type":"Feature","geometry":{"type":"Point","coordinates":[36.03554237,32.88816115]},"properties":{"placename":" الجابية","hebrewname":" אלגאביה","englishname":" aljabyah","count":2,"type":"PLACE"}},{"_id":"611daa7d5f9d5cbbd4189f4e","type":"Feature","geometry":{"type":"Point","coordinates":[35.69575503,33.8970028]},"properties":{"placename":" جبل لبنان","hebrewname":" גבל לבנאנ","englishname":" jbl lbnan","count":1,"type":"PLACE"}},{"_id":"611daa7d5f9d5cbbd4189f4f","type":"Feature","geometry":{"type":"Point","coordinates":[52.74933093,28.87077523]},"properties":{"placename":"ميمند","hebrewname":"מימנד","englishname":"mymnd","count":1,"type":"PLACE"}},{"_id":"611daa7d5f9d5cbbd4189f50","type":"Feature","geometry":{"type":"Point","coordinates":[53.6482,28.9383]},"properties":{"placename":"فسا","hebrewname":"פסא","englishname":"fsa","count":45,"type":"PLACE"}},{"_id":"611daa7d5f9d5cbbd4189f51","type":"Feature","geometry":{"type":"Point","coordinates":[53.2717175,31.12951375]},"properties":{"placename":"أبرقوه","hebrewname":"אברקוה","englishname":"Abrqoh","count":3,"type":"PLACE"}},{"_id":"611daa7d5f9d5cbbd4189f52","type":"Feature","geometry":{"type":"Point","coordinates":[35.58444,33.54167]},"properties":{"placename":"جرة","hebrewname":"גרה","englishname":"jrah","count":82,"type":"PLACE"}},{"_id":"611daa7d5f9d5cbbd4189f53","type":"Feature","geometry":{"type":"Point","coordinates":[11.06222,35.50472]},"properties":{"placename":"جم","hebrewname":"גמ","englishname":"jm","count":662,"type":"PLACE"}},{"_id":"611daa7d5f9d5cbbd4189f54","type":"Feature","geometry":{"type":"Point","coordinates":[29.904133,31.195371]},"properties":{"placename":"قير","hebrewname":"קיר","englishname":"qyr","count":42,"type":"PLACE"}},{"_id":"611daa7d5f9d5cbbd4189f55","type":"Feature","geometry":{"type":"Point","coordinates":[10.00751,50.40239]},"properties":{"placename":"رون","hebrewname":"רונ","englishname":"ron","count":228,"type":"PLACE"}},{"_id":"611daa7d5f9d5cbbd4189f56","type":"Feature","geometry":{"type":"Point","coordinates":[51.59555191,31.06205075]},"properties":{"placename":"كمه","hebrewname":"כמה","englishname":"kmh","count":22,"type":"PLACE"}},{"_id":"611daa7d5f9d5cbbd4189f57","type":"Feature","geometry":{"type":"Point","coordinates":[35.66276,32.41736]},"properties":{"placename":"كفر","hebrewname":"כפר","englishname":"kfr","count":18,"type":"PLACE"}},{"_id":"611daa7d5f9d5cbbd4189f58","type":"Feature","geometry":{"type":"Point","coordinates":[53.46398166,36.6770729]},"properties":{"placename":"قوهستان","hebrewname":"קוהסתאנ","englishname":"qohstan","count":1,"type":"PLACE"}},{"_id":"611daa7d5f9d5cbbd4189f59","type":"Feature","geometry":{"type":"Point","coordinates":[54.43805009,28.67982832]},