[{"_id":"60d325f20e79895a57935775","type":"Feature","geometry":{"type":"Point","coordinates":[47.53113714,40.28705839]},"properties":{"placename":"آذربيجان","hebrewname":"אדרביגאנ","englishname":"aaVrbyjan","Description":"","count":15,"Relation":{"Type_Arabic":"-","Type_English":"-","Metropolitan":"-","District":"-","Province":"-"}}},{"_id":"60d325f20e79895a5793577e","type":"Feature","geometry":{"type":"Point","coordinates":[36.3006518,33.5123279]},"properties":{"placename":"الغوطة","hebrewname":"אלעוטה","englishname":"algoTah","Description":"","count":1,"Relation":{"Type_Arabic":"كورة","Type_English":"town","Metropolitan":"-","District":"-","Province":"-"}}},{"_id":"60d325f20e79895a57935778","type":"Feature","geometry":{"type":"Point","coordinates":[8.895866681620149,36.281677568916066]},"properties":{"placename":"الأربس","hebrewname":"אלארבס","englishname":"alArbs","Description":"","count":1,"Relation":{"Type_Arabic":"مدينة","Type_English":"city","Metropolitan":"سيلان","District":"-","Province":"-"}}},{"_id":"60d325f20e79895a579357a7","type":"Feature","geometry":{"type":"Point","coordinates":[34.893068,31.950908]},"properties":{"placename":"لد","hebrewname":"לד","englishname":"ld","Description":"","count":378,"Relation":{"Type_Arabic":"قرية","Type_English":"village","Metropolitan":"المقدس","District":"فلسطين","Province":"-"}}},{"_id":"60d325f20e79895a579357a8","type":"Feature","geometry":{"type":"Point","coordinates":[35.66813649,31.97563763]},"properties":{"placename":"البلقاء","hebrewname":"אלבלקאא","englishname":"alblqaa","Description":"","count":1,"Relation":{"Type_Arabic":"كورة","Type_English":"town","Metropolitan":"الإسكندرية","District":"دمشق","Province":"الشام"}}},{"_id":"60d325f20e79895a579357d9","type":"Feature","geometry":{"type":"Point","coordinates":[30.55385442,29.33135345]},"properties":{"placename":"الفيوم","hebrewname":"אלפיומ","englishname":"alfyom","Description":"","count":3,"Relation":{"Type_Arabic":"ناحية","Type_English":"district","Metropolitan":"هيت","District":"الفيوم","Province":"مصر"}}},{"_id":"60d325f20e79895a579357da","type":"Feature","geometry":{"type":"Point","coordinates":[41.17579313,37.15429948]},"properties":{"placename":"نصيبين","hebrewname":"נציבינ","englishname":"nSybyn","Description":"","count":1,"Relation":{"Type_Arabic":"مدينة","Type_English":"city","Metropolitan":"ينوف","District":"الموصل","Province":"الروم"}}},{"_id":"60d325f20e79895a579357e2","type":"Feature","geometry":{"type":"Point","coordinates":[38.74288,35.83917]},"properties":{"placename":"المنصورة","hebrewname":"אלמנצורה","englishname":"almnSorah","Description":"","count":1,"Relation":{"Type_Arabic":"مدينة","Type_English":"city","Metropolitan":"-","District":"-","Province":"السند"}}},{"_id":"60d325f20e79895a579357f5","type":"Feature","geometry":{"type":"Point","coordinates":[37.97389789,25.64721574]},"properties":{"placename":"الحجاز","hebrewname":"אלחגאז","englishname":"alHjaz","Description":"","count":6,"Relation":{"Type_Arabic":"حبل","Type_English":"region","Metropolitan":"بسر","District":"مكة","Province":"الشام"}}},{"_id":"60d325f20e79895a5793581c","type":"Feature","geometry":{"type":"Point","coordinates":[10.0982,33.88146]},"properties":{"placename":"قابس","hebrewname":"קאבס","englishname":"qabs","Description":"","count":3,"Relation":{"Type_Arabic":"منازل","Type_English":"abodes","Metropolitan":"حاجة","District":"البادية","Province":"إفريقية"}}},{"_id":"60d325f20e79895a57935842","type":"Feature","geometry":{"type":"Point","coordinates":[35.475216410034164,33.54490423358391]},"properties":{"placename":"فالوس","hebrewname":"פאלוס","englishname":"falos","Description":"","count":1,"Relation":{"Type_Arabic":"-","Type_English":"-","Metropolitan":"-","District":"-","Province":"-"}}},{"_id":"60d325f20e79895a57935844","type":"Feature","geometry":{"type":"Point","coordinates":[50.828022440992044,34.69697072677716]},"properties":{"placename":"منيجان","hebrewname":"מניגאנ","englishname":"mnyjan","Description":"","count":2,"Relation":{"Type_Arabic":"-","Type_English":"-","Metropolitan":"-","District":"-","Province":"-"}}},{"_id":"60d325f20e79895a57935870","type":"Feature","geometry":{"type":"Point","coordinates":[44.14668,13.92162]},"properties":{"placename":"جبلة","hebrewname":"גבלה","englishname":"jblah","Description":"","count":1,"Relation":{"Type_Arabic":"مواضع","Type_English":"places","Metropolitan":"عرينة","District":"الحجاز","Province":"-"}}},{"_id":"60d325f20e79895a5793588a","type":"Feature","geometry":{"type":"Point","coordinates":[37.39077,11.59364]},"properties":{"placename":"بحر","hebrewname":"בחר","englishname":"bHr","Description":"","count":98,"Relation":{"Type_Arabic":"-","Type_English":"-","Metropolitan":"-","District":"-","Province":"-"}}},{"_id":"60d325f20e79895a57935892","type":"Feature","geometry":{"type":"Point","coordinates":[87.51271037199349,24.677308357640914]},"properties":{"placename":"باكور","hebrewname":"באכור","englishname":"bakor","Description":"","count":1,"Relation":{"Type_Arabic":"-","Type_English":"-","Metropolitan":"-","District":"-","Province":"-"}}},{"_id":"60d325f20e79895a579358b4","type":"Feature","geometry":{"type":"Point","coordinates":[44.37302820906474,33.37737897985984]},"properties":{"placename":"الشماسية","hebrewname":"אלשמאסיה","englishname":"alshmasyah","Description":"","count":3,"Relation":{"Type_Arabic":"مدينة","Type_English":"city","Metropolitan":"-","District":"-","Province":"-"}}},{"_id":"60d325f20e79895a579358da","type":"Feature","geometry":{"type":"Point","coordinates":[35.313669154726604,32.861465858912595]},"properties":{"placename":"الجليل","hebrewname":"אלגליל","englishname":"aljlyl","Description":"","count":4,"Relation":{"Type_Arabic":"جبل","Type_English":"mountain","Metropolitan":"صيداء","District":"-","Province":"الشام"}}},{"_id":"60d325f20e79895a579358de","type":"Feature","geometry":{"type":"Point","coordinates":[30.41424186219321,31.39383269963587]},"properties":{"placename":"رشيد","hebrewname":"רשיד","englishname":"rshyd","Description":"","count":30,"Relation":{"Type_Arabic":"بليدة","Type_English":"small town","Metropolitan":"سنين","District":"طوس","Province":"مصر"}}},{"_id":"60d325f20e79895a579358e1","type":"Feature","geometry":{"type":"Point","coordinates":[8.11031109,33.92383442]},"properties":{"placename":"قسطيلية","hebrewname":"קסטיליה","englishname":"qsTylyah","Description":"","count":2,"Relation":{"Type_Arabic":"مدينة","Type_English":"city","Metropolitan":"جريد","District":"الزاب","Province":"-"}}},{"_id":"60d325f20e79895a57935916","type":"Feature","geometry":{"type":"Point","coordinates":[48.6842,31.31901]},"properties":{"placename":"سابور","hebrewname":"סאבור","englishname":"sabor","Description":"","count":23,"Relation":{"Type_Arabic":"كورة","Type_English":"town","Metropolitan":"توج","District":"البحرين","Province":"فارس"}}},{"_id":"60d325f20e79895a5793592c","type":"Feature","geometry":{"type":"Point","coordinates":[48.33485122,38.25398424]},"properties":{"placename":"بست","hebrewname":"בסת","englishname":"bst","Description":"","count":15,"Relation":{"Type_Arabic":"واد","Type_English":"valley","Metropolitan":"-","District":"نيسابور","Province":"أذربيجان"}}},{"_id":"60d325f20e79895a57935936","type":"Feature","geometry":{"type":"Point","coordinates":[37.003614,35.989704]},"properties":{"placename":"قنسرين","hebrewname":"קנסרינ","englishname":"qnsryn","Description":"","count":3,"Relation":{"Type_Arabic":"كورة","Type_English":"town","Metropolitan":"رشيد","District":"مكة","Province":"اليمن"}}},{"_id":"60d325f20e79895a57935940","type":"Feature","geometry":{"type":"Point","coordinates":[38.28402,34.5624]},"properties":{"placename":"تدمر","hebrewname":"תדמר","englishname":"tdmr","Description":"","count":1,"Relation":{"Type_Arabic":"مدينة","Type_English":"city","Metropolitan":"جبل أصم","District":"زمان","Province":"الشام"}}},{"_id":"60d325f20e79895a57935941","type":"Feature","geometry":{"type":"Point","coordinates":[53.46398166,36.6770729]},"properties":{"placename":"قوهستان","hebrewname":"קוהסתאנ","englishname":"qohstan","Description":"","count":1,"Relation":{"Type_Arabic":"جبل","Type_English":"mountain","Metropolitan":"جيرفت","District":"هراة","Province":"كرمان"}}},{"_id":"60d325f20e79895a57935954","type":"Feature","geometry":{"type":"Point","coordinates":[38.06374,24.08912]},"properties":{"placename":"ينبع","hebrewname":"ינבע","englishname":"ynba","Description":"","count":2,"Relation":{"Type_Arabic":"قرية","Type_English":"village","Metropolitan":"البيضاء","District":"تهامة","Province":"-"}}},{"_id":"60d325f20e79895a5793595b","type":"Feature","geometry":{"type":"Point","coordinates":[54.10400758,17.21360838]},"properties":{"placename":"جمح","hebrewname":"גמח","englishname":"jmH","Description":"","count":1,"Relation":{"Type_Arabic":"-","Type_English":"-","Metropolitan":"-","District":"-","Province":"-"}}},{"_id":"60d325f20e79895a5793596c","type":"Feature","geometry":{"type":"Point","coordinates":[37.01353029,33.4596305]},"properties":{"placename":"ريف","hebrewname":"ריפ","englishname":"ryf","Description":"","count":9,"Relation":{"Type_Arabic":"-","Type_English":"-","Metropolitan":"-","District":"-","Province":"-"}}},{"_id":"60d325f20e79895a57935975","type":"Feature","geometry":{"type":"Point","coordinates":[48.34915382,15.29681231]},"properties":{"placename":"فيل","hebrewname":"פיל","englishname":"fyl","Description":"","count":3,"Relation":{"Type_Arabic":"مدينة","Type_English":"city","Metropolitan":"-","District":"-","Province":"-"}}},{"_id":"60d325f20e79895a5793597d","type":"Feature","geometry":{"type":"Point","coordinates":[39.1843,51.67204]},"properties":{"placename":"الروس","hebrewname":"אלרוס","englishname":"alros","Description":"","count":1,"Relation":{"Type_Arabic":"-","Type_English":"-","Metropolitan":"-","District":"-","Province":"-"}}},{"_id":"60d325f20e79895a57935999","type":"Feature","geometry":{"type":"Point","coordinates":[31.55861,6.20889]},"properties":{"placename":"بور","hebrewname":"בור","englishname":"bor","Description":"","count":28,"Relation":{"Type_Arabic":"-","Type_English":"-","Metropolitan":"-","District":"-","Province":"-"}}},{"_id":"60d325f20e79895a5793599b","type":"Feature","geometry":{"type":"Point","coordinates":[65.71013,31.61332]},"properties":{"placename":"قندهار","hebrewname":"קנדהאר","englishname":"qndhar","Description":"","count":3,"Relation":{"Type_Arabic":"مدينة","Type_English":"city","Metropolitan":"-","District":"-","Province":"-"}}},{"_id":"60d325f20e79895a57935783","type":"Feature","geometry":{"type":"Point","coordinates":[10.02397832,36.82156057]},"properties":{"placename":"صنهاجة","hebrewname":"צנהאגה","englishname":"Snhajah","Description":"","count":5,"Relation":{"Type_Arabic":"-","Type_English":"-","Metropolitan":"-","District":"-","Province":"-"}}},{"_id":"60d325f20e79895a5793578e","type":"Feature","geometry":{"type":"Point","coordinates":[16.13904,29.1614]},"properties":{"placename":"ودان","hebrewname":"ודאנ","englishname":"odan","Description":"","count":16,"Relation":{"Type_Arabic":"مواضع","Type_English":"places","Metropolitan":"صدر","District":"الحجاز","Province":"-"}}},{"_id":"60d325f20e79895a57935782","type":"Feature","geometry":{"type":"Point","coordinates":[41.87656,36.3209]},"properties":{"placename":"سنجار","hebrewname":"סנגאר","englishname":"snjar","Description":"","count":1,"Relation":{"Type_Arabic":"مدينة","Type_English":"city","Metropolitan":"جبل جودي","District":"الحجاز","Province":"الشام"}}},{"_id":"60d325f20e79895a57935793","type":"Feature","geometry":{"type":"Point","coordinates":[8.12790804795639,33.92237915949117]},"properties":{"placename":"توزر","hebrewname":"תוזר","englishname":"tozr","Description":"","count":1,"Relation":{"Type_Arabic":"مدينة","Type_English":"city","Metropolitan":"جريد","District":"-","Province":"-"}}},{"_id":"60d325f20e79895a57935796","type":"Feature","geometry":{"type":"Point","coordinates":[39.52981318,24.52756279]},"properties":{"placename":"المدينة","hebrewname":"אלמדינה","englishname":"almdynah","Description":"","count":112,"Relation":{"Type_Arabic":"-","Type_English":"-","Metropolitan":"-","District":"-","Province":"-"}}},{"_id":"60d325f20e79895a579357b1","type":"Feature","geometry":{"type":"Point","coordinates":[88.71036738,31.27698696]},"properties":{"placename":"التبت","hebrewname":"אלתבת","englishname":"altbt","Description":"","count":18,"Relation":{"Type_Arabic":"-","Type_English":"-","Metropolitan":"-","District":"-","Province":"-"}}},{"_id":"60d325f20e79895a579357b9","type":"Feature","geometry":{"type":"Point","coordinates":[58.87033297,35.48693989]},"properties":{"placename":"خراسان","hebrewname":"חראסאנ","englishname":"xrasan","Description":"","count":171,"Relation":{"Type_Arabic":"ما","Type_English":"water","Metropolitan":"الدار","District":"السواد","Province":"ما وراء النهر"}}},{"_id":"60d325f20e79895a579357d0","type":"Feature","geometry":{"type":"Point","coordinates":[43.98358401,36.59685416]},"properties":{"placename":"الزاب","hebrewname":"אלזאב","englishname":"alzab","Description":"","count":9,"Relation":{"Type_Arabic":"حد","Type_English":"border","Metropolitan":"نصيبين","District":"الموصل","Province":"مشتكهر"}}},{"_id":"60d325f20e79895a579357d2","type":"Feature","geometry":{"type":"Point","coordinates":[43.8113579470068,13.948048515564924]},"properties":{"placename":"شرعب","hebrewname":"שרעב","englishname":"shrab","Description":"","count":3,"Relation":{"Type_Arabic":"عين","Type_English":"spring","Metropolitan":"-","District":"-","Province":"اليمن"}}},{"_id":"60d325f20e79895a579357d3","type":"Feature","geometry":{"type":"Point","coordinates":[36.55923838,35.26166871]},"properties":{"placename":"شيزر","hebrewname":"שיזר","englishname":"shyzr","Description":"","count":1,"Relation":{"Type_Arabic":"قلعة","Type_English":"castle","Metropolitan":"معرة","District":"حمص","Province":"الشام"}}},{"_id":"60d325f20e79895a579357dc","type":"Feature","geometry":{"type":"Point","coordinates":[44.39716853,33.32906174]},"properties":{"placename":"دجلة","hebrewname":"דגלה","englishname":"djlah","Description":"","count":55,"Relation":{"Type_Arabic":"واد","Type_English":"valley","Metropolitan":"عظم","District":"الموصل","Province":"خزر"}}},{"_id":"60d325f20e79895a579357e6","type":"Feature","geometry":{"type":"Point","coordinates":[47.43309888,34.58347352]},"properties":{"placename":"الدينور","hebrewname":"אלדינור","englishname":"aldynor","Description":"","count":11,"Relation":{"Type_Arabic":"-","Type_English":"-","Metropolitan":"-","District":"-","Province":"-"}}},{"_id":"60d325f20e79895a579357e9","type":"Feature","geometry":{"type":"Point","coordinates":[36.59630864158382,33.73938132141689]},"properties":{"placename":"القطيفة","hebrewname":"אלקטיפה","englishname":"alqTyfah","Description":"","count":1,"Relation":{"Type_Arabic":"قرية","Type_English":"village","Metropolitan":"-","District":"حمص","Province":"-"}}},{"_id":"60d325f20e79895a579357ed","type":"Feature","geometry":{"type":"Point","coordinates":[35.68414,32.6532]},"properties":{"placename":"قيس","hebrewname":"קיס","englishname":"qys","Description":"","count":34,"Relation":{"Type_Arabic":"قرية","Type_English":"village","Metropolitan":"النبي","District":"بيض","Province":"مصر"}}},{"_id":"60d325f20e79895a57935808","type":"Feature","geometry":{"type":"Point","coordinates":[36.73241,34.92667]},"properties":{"placename":"الرستن","hebrewname":"אלרסתנ","englishname":"alrstn","Description":"","count":2,"Relation":{"Type_Arabic":"طريق","Type_English":"road","Metropolitan":"-","District":"-","Province":"-"}}},{"_id":"60d325f20e79895a5793581f","type":"Feature","geometry":{"type":"Point","coordinates":[36.1213,32.12901]},"properties":{"placename":"الهاشمية","hebrewname":"אלהאשמיה","englishname":"alhashmyah","Description":"","count":3,"Relation":{"Type_Arabic":"ماء","Type_English":"water","Metropolitan":"الخزيمية","District":"مكة","Province":"-"}}},{"_id":"60d325f20e79895a57935827","type":"Feature","geometry":{"type":"Point","coordinates":[42.47463029,36.02265052]},"properties":{"placename":"الموصل","hebrewname":"אלמוצל","englishname":"almoSl","Description":"","count":5,"Relation":{"Type_Arabic":"مدينة","Type_English":"city","Metropolitan":"بين النهرين","District":"دجلة","Province":"نينوي"}}},{"_id":"60d325f20e79895a5793582f","type":"Feature","geometry":{"type":"Point","coordinates":[-4.7791517,37.8847267]},"properties":{"placename":"قرطبة","hebrewname":"קרטבה","englishname":"qrTbah","Description":"","count":7,"Relation":{"Type_Arabic":"مدينة","Type_English":"city","Metropolitan":"قاسم","District":"-","Province":"المغرب"}}},{"_id":"60d325f20e79895a57935841","type":"Feature","geometry":{"type":"Point","coordinates":[35.234382688988795,31.69039916778702]},"properties":{"placename":"بردعة","hebrewname":"ברדעה","englishname":"brdaah","Description":"","count":3,"Relation":{"Type_Arabic":"-","Type_English":"-","Metropolitan":"-","District":"-","Province":"-"}}},{"_id":"60d325f20e79895a5793584c","type":"Feature","geometry":{"type":"Point","coordinates":[31.11534339,27.23214033]},"properties":{"placename":"أسيوط","hebrewname":"אסיוט","englishname":"AsyoT","Description":"","count":1,"Relation":{"Type_Arabic":"مدينة","Type_English":"city","Metropolitan":"-","District":"النيل","Province":"مصر"}}},{"_id":"60d325f20e79895a5793584f","type":"Feature","geometry":{"type":"Point","coordinates":[51.43997,35.59354]},"properties":{"placename":"الري","hebrewname":"אלרי","englishname":"alry","Description":"","count":31,"Relation":{"Type_Arabic":"مدينة","Type_English":"city","Metropolitan":"دنباوند","District":"بغداد","Province":"الري"}}},{"_id":"60d325f20e79895a57935854","type":"Feature","geometry":{"type":"Point","coordinates":[30.88998992732775,31.047335887396716]},"properties":{"placename":"أبشاية","hebrewname":"אבשאיה","englishname":"Abshayah","Description":"","count":3,"Relation":{"Type_Arabic":"-","Type_English":"-","Metropolitan":"-","District":"-","Province":"-"}}},{"_id":"60d325f20e79895a57935869","type":"Feature","geometry":{"type":"Point","coordinates":[1.316543346,35.37005356]},"properties":{"placename":"تاهرت","hebrewname":"תאהרת","englishname":"tahrt","Description":"","count":17,"Relation":{"Type_Arabic":"مدينة","Type_English":"city","Metropolitan":"القيروان","District":"الزاب","Province":"إفريقية"}}},{"_id":"60d325f20e79895a57935872","type":"Feature","geometry":{"type":"Point","coordinates":[41.19759443,33.13983121]},"properties":{"placename":"الأنبار","hebrewname":"אלאנבאר","englishname":"alAnbar","Description":"","count":6,"Relation":{"Type_Arabic":"قصبة","Type_English":"kasbah (city center)","Metropolitan":"الأعلم","District":"الفرات","Province":"نوبة"}}},{"_id":"60d325f20e79895a57935878","type":"Feature","geometry":{"type":"Point","coordinates":[45.52904,14.85192]},"properties":{"placename":"عين","hebrewname":"עינ","englishname":"ayn","Description":"","count":57,"Relation":{"Type_Arabic":"موضع","Type_English":"place","Metropolitan":"-","District":"-","Province":"هذيل"}}},{"_id":"60d325f20e79895a57935887","type":"Feature","geometry":{"type":"Point","coordinates":[32.657675713873346,26.168084372518354]},"properties":{"placename":"دندرة","hebrewname":"דנדרה","englishname":"dndrah","Description":"","count":1,"Relation":{"Type_Arabic":"بليدة","Type_English":"small town","Metropolitan":"-","District":"-","Province":"-"}}},{"_id":"60d325f20e79895a579358cc","type":"Feature","geometry":{"type":"Point","coordinates":[69.21343783111197,35.62154628510564]},"properties":{"placename":"أندراب","hebrewname":"אנדראב","englishname":"Andrab","Description":"","count":1,"Relation":{"Type_Arabic":"مدينة","Type_English":"city","Metropolitan":"-","District":"-","Province":"-"}}},{"_id":"60d325f20e79895a579358d7","type":"Feature","geometry":{"type":"Point","coordinates":[48.91993562490604,39.927976497168814]},"properties":{"placename":"شروان","hebrewname":"שרואנ","englishname":"shroan","Description":"","count":3,"Relation":{"Type_Arabic":"مدينة","Type_English":"city","Metropolitan":"دربند","District":"أرمينية","Province":"-"}}},{"_id":"60d325f20e79895a579358ef","type":"Feature","geometry":{"type":"Point","coordinates":[-5.79975,35.76727]},"properties":{"placename":"طنجة","hebrewname":"טנגה","englishname":"Tnjah","Description":"","count":1,"Relation":{"Type_Arabic":"مدينة","Type_English":"city","Metropolitan":"الزاوية","District":"-","Province":"المغرب"}}},{"_id":"60d325f20e79895a579358f6","type":"Feature","geometry":{"type":"Point","coordinates":[5.607682617,35.55593225]},"properties":{"placename":"نقاوس","hebrewname":"נקאוס","englishname":"nqaos","Description":"","count":1,"Relation":{"Type_Arabic":"-","Type_English":"-","Metropolitan":"-","District":"-","Province":"-"}}},{"_id":"60d325f20e79895a57935901","type":"Feature","geometry":{"type":"Point","coordinates":[37.59952067,36.23280127]},"properties":{"placename":" حلب","hebrewname":" חלב","englishname":" Hlb","Description":"","count":3,"Relation":{"Type_Arabic":"-","Type_English":"-","Metropolitan":"-","District":"-","Province":"-"}}},{"_id":"60d325f20e79895a57935902","type":"Feature","geometry":{"type":"Point","coordinates":[34.7980796,29.7906778]},"properties":{"placename":" مدين","hebrewname":" מדינ","englishname":" mdyn","Description":"","count":308,"Relation":{"Type_Arabic":"-","Type_English":"-","Metropolitan":"-","District":"-","Province":"-"}}},{"_id":"60d325f20e79895a57935909","type":"Feature","geometry":{"type":"Point","coordinates":[36.13045457,33.99045457]},"properties":{"placename":" البقاع","hebrewname":" אלבקאע","englishname":" albqaa","Description":"","count":1,"Relation":{"Type_Arabic":"-","Type_English":"-","Metropolitan":"-","District":"-","Province":"-"}}},{"_id":"60d325f20e79895a5793590a","type":"Feature","geometry":{"type":"Point","coordinates":[36.03554237,32.88816115]},"properties":{"placename":" الجابية","hebrewname":" אלגאביה","englishname":" aljabyah","Description":"","count":1,"Relation":{"Type_Arabic":"-","Type_English":"-","Metropolitan":"-","District":"-","Province":"-"}}},{"_id":"60d325f20e79895a57935911","type":"Feature","geometry":{"type":"Point","coordinates":[11.06222,35.50472]},"properties":{"placename":"جم","hebrewname":"גמ","englishname":"jm","Description":"","count":163,"Relation":{"Type_Arabic":"مدينة","Type_English":"city","Metropolitan":"-","District":"-","Province":"فارس"}}},{"_id":"60d325f20e79895a57935917","type":"Feature","geometry":{"type":"Point","coordinates":[35.41084887,32.99818306]},"properties":{"placename":"جرمق","hebrewname":"גרמק","englishname":"jrmq","Description":"","count":1,"Relation":{"Type_Arabic":"بلدة","Type_English":"town","Metropolitan":"صيداء","District":"أصبهان","Province":"فارس"}}},{"_id":"60d325f20e79895a57935919","type":"Feature","geometry":{"type":"Point","coordinates":[51.59555191,31.06205075]},"properties":{"placename":"كمه","hebrewname":"כמה","englishname":"kmh","Description":"","count":2,"Relation":{"Type_Arabic":"-","Type_English":"-","Metropolitan":"-","District":"-","Province":"-"}}},{"_id":"60d325f20e79895a57935926","type":"Feature","geometry":{"type":"Point","coordinates":[35.77104272,31.12832137]},"properties":{"placename":"كرك","hebrewname":"כרכ","englishname":"krk","Description":"","count":3,"Relation":{"Type_Arabic":"قرية","Type_English":"village","Metropolitan":"جبل لبنان","District":"-","Province":"الشام"}}},{"_id":"60d325f20e79895a57935949","type":"Feature","geometry":{"type":"Point","coordinates":[35.89158,33.18378]},"properties":{"placename":"خان","hebrewname":"חאנ","englishname":"xan","Description":"","count":9,"Relation":{"Type_Arabic":"منازل","Type_English":"abodes","Metropolitan":"الورد","District":"-","Province":"-"}}},{"_id":"60d325f20e79895a57935953","type":"Feature","geometry":{"type":"Point","coordinates":[43.25278,11.46111]},"properties":{"placename":"جبا","hebrewname":"גבא","englishname":"jba","Description":"","count":36,"Relation":{"Type_Arabic":"ماء","Type_English":"water","Metropolitan":"-","District":"-","Province":"-"}}},{"_id":"60d325f20e79895a57935974","type":"Feature","geometry":{"type":"Point","coordinates":[9.510727243,36.57968393]},"properties":{"placename":"سلوقية","hebrewname":"סלוקיה","englishname":"sloqyah","Description":"","count":1,"Relation":{"Type_Arabic":"جند","Type_English":"military district","Metropolitan":"صير","District":"-","Province":"-"}}},{"_id":"60d325f20e79895a57935993","type":"Feature","geometry":{"type":"Point","coordinates":[69.73482,35.42898]},"properties":{"placename":"خنج","hebrewname":"חנג","englishname":"xnj","Description":"","count":6,"Relation":{"Type_Arabic":"-","Type_English":"-","Metropolitan":"-","District":"-","Province":"-"}}},{"_id":"60d325f20e79895a57935786","type":"Feature","geometry":{"type":"Point","coordinates":[21.94788317,32.5235541]},"properties":{"placename":"النوبة","hebrewname":"אלנובה","englishname":"alnobah","Description":"","count":20,"Relation":{"Type_Arabic":"-","Type_English":"-","Metropolitan":"-","District":"-","Province":"-"}}},{"_id":"60d325f20e79895a5793578d","type":"Feature","geometry":{"type":"Point","coordinates":[61.1577,36.5449]},"properties":{"placename":"سرخس","hebrewname":"סרחס","englishname":"srxs","Description":"","count":7,"Relation":{"Type_Arabic":"مدينة","Type_English":"city","Metropolitan":"الواعظ","District":"هراة","Province":"خراسان"}}},{"_id":"60d325f20e79895a5793579a","type":"Feature","geometry":{"type":"Point","coordinates":[46.38811,14.20567]},"properties":{"placename":"الرباط","hebrewname":"אלרבאט","englishname":"alrbaT","Description":"","count":2,"Relation":{"Type_Arabic":"-","Type_English":"-","Metropolitan":"-","District":"-","Province":"-"}}},{"_id":"60d325f20e79895a579357a3","type":"Feature","geometry":{"type":"Point","coordinates":[31.23341879,30.00070536]},"properties":{"placename":"الفسطاط","hebrewname":"אלפסטאט","englishname":"alfsTaT","Description":"","count":4,"Relation":{"Type_Arabic":"لغة","Type_English":"language","Metropolitan":"الدار","District":"الصعيد","Province":"مصر"}}},{"_id":"60d325f20e79895a579357ae","type":"Feature","geometry":{"type":"Point","coordinates":[35.895393312268226,34.88332845011477]},"properties":{"placename":"أنظرظوس","hebrewname":"אנזרזוס","englishname":"AnZrZos","Description":"","count":1,"Relation":{"Type_Arabic":"-","Type_English":"-","Metropolitan":"-","District":"-","Province":"-"}}},{"_id":"60d325f20e79895a579357b5","type":"Feature","geometry":{"type":"Point","coordinates":[28.448536216089124,41.21696798911607]},"properties":{"placename":"الإمبراطورية البيزنطية","hebrewname":"אלאימבראטוריה אלביזנטיה","englishname":"alAmbraToryah albyznTyah","Description":"","count":1,"Relation":{"Type_Arabic":"-","Type_English":"-","Metropolitan":"-","District":"-","Province":"-"}}},{"_id":"60d325f20e79895a579357cf","type":"Feature","geometry":{"type":"Point","coordinates":[47.00046801574935,33.46966736363171]},"properties":{"placename":"الصيمرة","hebrewname":"אלצימרה","englishname":"alSymrah","Description":"","count":4,"Relation":{"Type_Arabic":"-","Type_English":"-","Metropolitan":"-","District":"-","Province":"-"}}},{"_id":"60d325f20e79895a579357d5","type":"Feature","geometry":{"type":"Point","coordinates":[9.94239824707124,35.666001694307106]},"properties":{"placename":"سفوطرة","hebrewname":"ספוטרה","englishname":"sfoTrah","Description":"","count":1,"Relation":{"Type_Arabic":"-","Type_English":"-","Metropolitan":"-","District":"-","Province":"-"}}},{"_id":"60d325f20e79895a57935809","type":"Feature","geometry":{"type":"Point","coordinates":[35.41870028,38.66608611]},"properties":{"placename":"الروم","hebrewname":"אלרומ","englishname":"alrom","Description":"","count":23,"Relation":{"Type_Arabic":"بلد","Type_English":"town","Metropolitan":"بنت","District":"الباب","Province":"اليمن"}}},{"_id":"60d325f20e79895a57935812","type":"Feature","geometry":{"type":"Point","coordinates":[36.52718065,35.01992756]},"properties":{"placename":"البجة","hebrewname":"אלבגה","englishname":"albjah","Description":"","count":7,"Relation":{"Type_Arabic":"-","Type_English":"-","Metropolitan":"-","District":"-","Province":"-"}}},{"_id":"60d325f20e79895a5793581b","type":"Feature","geometry":{"type":"Point","coordinates":[31.37118466277111,31.130531633464958]},"properties":{"placename":"دميرة","hebrewname":"דמירה","englishname":"dmyrah","Description":"","count":1,"Relation":{"Type_Arabic":"قرية","Type_English":"village","Metropolitan":"دمياط","District":"-","Province":"مصر"}}},{"_id":"60d325f20e79895a57935847","type":"Feature","geometry":{"type":"Point","coordinates":[31.3104974,30.36424359]},"properties":{"placename":"القلزم","hebrewname":"אלקלזמ","englishname":"alqlzm","Description":"","count":3,"Relation":{"Type_Arabic":"ساحل","Type_English":"coast","Metropolitan":"طور","District":"مكة","Province":"مصر"}}},{"_id":"60d325f20e79895a57935851","type":"Feature","geometry":{"type":"Point","coordinates":[31.30084,29.84144]},"properties":{"placename":"حلوان","hebrewname":"חלואנ","englishname":"Hloan","Description":"","count":6,"Relation":{"Type_Arabic":"قرية","Type_English":"village","Metropolitan":"مزج","District":"همذان","Province":"العراق"}}},{"_id":"60d325f20e79895a57935861","type":"Feature","geometry":{"type":"Point","coordinates":[35.281821761674905,33.445307866170225]},"properties":{"placename":"خرزان","hebrewname":"חרזאנ","englishname":"xrzan","Description":"","count":1,"Relation":{"Type_Arabic":"-","Type_English":"-","Metropolitan":"-","District":"-","Province":"-"}}},{"_id":"60d325f20e79895a5793587b","type":"Feature","geometry":{"type":"Point","coordinates":[43.11036988669015,40.603860297999695]},"properties":{"placename":"قارص","hebrewname":"קארצ","englishname":"qarS","Description":"","count":1,"Relation":{"Type_Arabic":"-","Type_English":"-","Metropolitan":"-","District":"-","Province":"-"}}},{"_id":"60d325f20e79895a57935880","type":"Feature","geometry":{"type":"Point","coordinates":[36.569130409222716,34.43670816738156]},"properties":{"placename":"جوسية","hebrewname":"גוסיה","englishname":"josyah","Description":"","count":2,"Relation":{"Type_Arabic":"قرية","Type_English":"village","Metropolitan":"-","District":"حمص","Province":"-"}}},{"_id":"60d325f20e79895a57935885","type":"Feature","geometry":{"type":"Point","coordinates":[35.23608925685883,31.77822552743524]},"properties":{"placename":"الأقصى","hebrewname":"אלאקצא","englishname":"alAqSa","Description":"","count":3,"Relation":{"Type_Arabic":"-","Type_English":"-","Metropolitan":"-","District":"-","Province":"-"}}},{"_id":"60d325f20e79895a5793588b","type":"Feature","geometry":{"type":"Point","coordinates":[55.54178947,36.59432288]},"properties":{"placename":"جيلان","hebrewname":"גילאנ","englishname":"jylan","Description":"","count":1,"Relation":{"Type_Arabic":"بلاد","Type_English":"caliphate's country","Metropolitan":"-","District":"-","Province":"-"}}},{"_id":"60d325f20e79895a57935896","type":"Feature","geometry":{"type":"Point","coordinates":[44.610426347934,33.75205591581097]},"properties":{"placename":"جرجرايا","hebrewname":"גרגראיא","englishname":"jrjraya","Description":"","count":1,"Relation":{"Type_Arabic":"بلد","Type_English":"town","Metropolitan":"نهروان","District":"-","Province":"-"}}},{"_id":"60d325f20e79895a579358a9","type":"Feature","geometry":{"type":"Point","coordinates":[35.0938,31.52935]},"properties":{"placename":"الخليل","hebrewname":"אלחליל","englishname":"alxlyl","Description":"","count":2,"Relation":{"Type_Arabic":"موضع","Type_English":"place","Metropolitan":"الحائط","District":"-","Province":"-"}}},{"_id":"60d325f20e79895a57935908","type":"Feature","geometry":{"type":"Point","coordinates":[34.893068,31.950908]},"properties":{"placename":" لد","hebrewname":" לד","englishname":" ld","Description":"","count":6,"Relation":{"Type_Arabic":"-","Type_English":"-","Metropolitan":"-","District":"-","Province":"-"}}},{"_id":"60d325f20e79895a5793590b","type":"Feature","geometry":{"type":"Point","coordinates":[53.09258931,27.57421533]},"properties":{"placename":"جور","hebrewname":"גור","englishname":"jor","Description":"","count":4,"Relation":{"Type_Arabic":"مدينة","Type_English":"city","Metropolitan":"تذكر","District":"-","Province":"المغرب"}}},{"_id":"60d325f20e79895a57935920","type":"Feature","geometry":{"type":"Point","coordinates":[123.12278,9.59111]},"properties":{"placename":"بيز","hebrewname":"ביז","englishname":"byz","Description":"","count":3,"Relation":{"Type_Arabic":"-","Type_English":"-","Metropolitan":"-","District":"-","Province":"-"}}},{"_id":"60d325f20e79895a5793592b","type":"Feature","geometry":{"type":"Point","coordinates":[58.51811868,23.39658596]},"properties":{"placename":"الحاجر","hebrewname":"אלחאגר","englishname":"alHajr","Description":"","count":1,"Relation":{"Type_Arabic":"موضع","Type_English":"place","Metropolitan":"المعدن","District":"-","Province":"الكوفة"}}},{"_id":"60d325f20e79895a5793592d","type":"Feature","geometry":{"type":"Point","coordinates":[50.5487711,26.05131104]},"properties":{"placename":"البحرين","hebrewname":"אלבחרינ","englishname":"albHryn","Description":"","count":2,"Relation":{"Type_Arabic":"جامع","Type_English":"mosque","Metropolitan":"هجر","District":"البحرين","Province":"الكوفة"}}},{"_id":"60d325f20e79895a57935955","type":"Feature","geometry":{"type":"Point","coordinates":[-6.79846,34.0531]},"properties":{"placename":"سلا","hebrewname":"סלא","englishname":"sla","Description":"","count":46,"Relation":{"Type_Arabic":"بحر","Type_English":"sea","Metropolitan":"-","District":"-","Province":"المغرب"}}},{"_id":"60d325f20e79895a57935963","type":"Feature","geometry":{"type":"Point","coordinates":[35.68521,32.49812]},"properties":{"placename":"أبي","hebrewname":"אבי","englishname":"Aby","Description":"","count":173,"Relation":{"Type_Arabic":"-","Type_English":"-","Metropolitan":"-","District":"-","Province":"-"}}},{"_id":"60d325f20e79895a57935985","type":"Feature","geometry":{"type":"Point","coordinates":[-5.54727,33.89352]},"properties":{"placename":"مكناس","hebrewname":"מכנאס","englishname":"mknas","Description":"","count":1,"Relation":{"Type_Arabic":"-","Type_English":"-","Metropolitan":"-","District":"-","Province":"-"}}},{"_id":"60d325f20e79895a5793578f","type":"Feature","geometry":{"type":"Point","coordinates":[-1.315,34.87833]},"properties":{"placename":"تلمسان","hebrewname":"תלמסאנ","englishname":"tlmsan","Description":"","count":1,"Relation":{"Type_Arabic":"مدينة","Type_English":"city","Metropolitan":"ناس","District":"-","Province":"المغرب"}}},{"_id":"60d325f20e79895a57935790","type":"Feature","geometry":{"type":"Point","coordinates":[60.63598377,25.36968646]},"properties":{"placename":"مكران","hebrewname":"מכראנ","englishname":"mkran","Description":"","count":4,"Relation":{"Type_Arabic":"ولاية","Type_English":"non-arab province","Metropolitan":"بحر فارس","District":"بابل","Province":"سجستان"}}},{"_id":"60d325f20e79895a579357b6","type":"Feature","geometry":{"type":"Point","coordinates":[36.21806,34.00583]},"properties":{"placename":"بعلبك","hebrewname":"בעלבכ","englishname":"balbk","Description":"","count":3,"Relation":{"Type_Arabic":"-","Type_English":"-","Metropolitan":"معروف","District":"دمشق","Province":"-"}}},{"_id":"60d325f20e79895a579357c1","type":"Feature","geometry":{"type":"Point","coordinates":[54.3675,31.89722]},"properties":{"placename":"يزد","hebrewname":"יזד","englishname":"yzd","Description":"","count":2,"Relation":{"Type_Arabic":"ناحية","Type_English":"district","Metropolitan":"إصطخر","District":"نيسابور","Province":"فارس"}}},{"_id":"60d325f20e79895a579357c3","type":"Feature","geometry":{"type":"Point","coordinates":[-6.338405465,38.92084343]},"properties":{"placename":"ماردة","hebrewname":"מארדה","englishname":"mardah","Description":"","count":1,"Relation":{"Type_Arabic":"مدينة","Type_English":"city","Metropolitan":"قرطبة","District":"-","Province":"-"}}},{"_id":"60d325f20e79895a579357e8","type":"Feature","geometry":{"type":"Point","coordinates":[33.79844,31.13159]},"properties":{"placename":"العريش","hebrewname":"אלעריש","englishname":"alarysh","Description":"","count":3,"Relation":{"Type_Arabic":"-","Type_English":"-","Metropolitan":"-","District":"-","Province":"-"}}},{"_id":"60d325f20e79895a579357ec","type":"Feature","geometry":{"type":"Point","coordinates":[44.44017,32.05114]},"properties":{"placename":"الكوفة","hebrewname":"אלכופה","englishname":"alkofah","Description":"","count":40,"Relation":{"Type_Arabic":"أرض","Type_English":"land","Metropolitan":"الجيش","District":"الفرات","Province":"البصرة"}}},{"_id":"60d325f20e79895a579357f3","type":"Feature","geometry":{"type":"Point","coordinates":[31.897384013261387,30.95298722154514]},"properties":{"placename":"صان","hebrewname":"צאנ","englishname":"San","Description":"","count":4,"Relation":{"Type_Arabic":"أرض","Type_English":"land","Metropolitan":"-","District":"-","Province":"مصر"}}},{"_id":"60d325f20e79895a579357f7","type":"Feature","geometry":{"type":"Point","coordinates":[34.23807,31.28781]},"properties":{"placename":"رفح","hebrewname":"רפח","englishname":"rfH","Description":"","count":1,"Relation":{"Type_Arabic":"منزل","Type_English":"small abodes","Metropolitan":"الداروم","District":"-","Province":"مصر"}}},{"_id":"60d325f20e79895a57935806","type":"Feature","geometry":{"type":"Point","coordinates":[29.91367754,31.20876695]},"properties":{"placename":"الإسكندرية","hebrewname":"אלאיסכנדריה","englishname":"alAskndryah","Description":"","count":5,"Relation":{"Type_Arabic":"مدينة","Type_English":"city","Metropolitan":"سير","District":"بابل","Province":"الصين"}}},{"_id":"60d325f20e79895a5793581d","type":"Feature","geometry":{"type":"Point","coordinates":[41.15151351,34.38211415]},"properties":{"placename":"الفرات","hebrewname":"אלפראת","englishname":"alfrat","Description":"","count":24,"Relation":{"Type_Arabic":"نهر","Type_English":"river","Metropolitan":"عانة","District":"بغداد","Province":"الكوفة"}}},{"_id":"60d325f20e79895a57935821","type":"Feature","geometry":{"type":"Point","coordinates":[31.72290673,31.37358241]},"properties":{"placename":"دمياط","hebrewname":"דמיאט","englishname":"dmyaT","Description":"","count":5,"Relation":{"Type_Arabic":"ثغر","Type_English":"frontier town","Metropolitan":"نهر أشموم","District":"ثغور الإسلام","Province":"مصر"}}},{"_id":"60d325f20e79895a57935822","type":"Feature","geometry":{"type":"Point","coordinates":[43.78015956,33.02990519]},"properties":{"placename":"العراق","hebrewname":"אלעראק","englishname":"alaraq","Description":"","count":33,"Relation":{"Type_Arabic":"ماء","Type_English":"water","Metropolitan":"القف","District":"الحجاز","Province":"المغرب"}}},{"_id":"60d325f20e79895a57935829","type":"Feature","geometry":{"type":"Point","coordinates":[57.83168226,28.14503048]},"properties":{"placename":"الديلم","hebrewname":"אלדילמ","englishname":"aldylm","Description":"","count":9,"Relation":{"Type_Arabic":"-","Type_English":"-","Metropolitan":"-","District":"-","Province":"-"}}},{"_id":"60d325f20e79895a5793582b","type":"Feature","geometry":{"type":"Point","coordinates":[1.334370961,36.15950931]},"properties":{"placename":"شلف","hebrewname":"שלפ","englishname":"shlf","Description":"","count":1,"Relation":{"Type_Arabic":"-","Type_English":"-","Metropolitan":"-","District":"-","Province":"-"}}},{"_id":"60d325f20e79895a5793587a","type":"Feature","geometry":{"type":"Point","coordinates":[34.57409483,31.66757417]},"properties":{"placename":"عسقلان","hebrewname":"עסקלאנ","englishname":"asqlan","Description":"","count":2,"Relation":{"Type_Arabic":"مدينة","Type_English":"city","Metropolitan":"عكا","District":"فلسطين","Province":"الشام"}}},{"_id":"60d325f20e79895a57935881","type":"Feature","geometry":{"type":"Point","coordinates":[48.525149659889486,36.720362988426615]},"properties":{"placename":"زنجان","hebrewname":"זנגאנ","englishname":"znjan","Description":"","count":7,"Relation":{"Type_Arabic":"بلد","Type_English":"town","Metropolitan":"عجم","District":"-","Province":"مصر"}}},{"_id":"60d325f20e79895a579358a6","type":"Feature","geometry":{"type":"Point","coordinates":[35.65019815462649,33.86787953090678]},"properties":{"placename":"القصيبة","hebrewname":"אלקציבה","englishname":"alqSybah","Description":"","count":1,"Relation":{"Type_Arabic":"مدينة","Type_English":"city","Metropolitan":"-","District":"-","Province":"-"}}},{"_id":"60d325f20e79895a579358a8","type":"Feature","geometry":{"type":"Point","coordinates":[-4.075893369,35.12643363]},"properties":{"placename":"الريف","hebrewname":"אלריפ","englishname":"alryf","Description":"","count":2,"Relation":{"Type_Arabic":"-","Type_English":"-","Metropolitan":"-","District":"-","Province":"-"}}},{"_id":"60d325f20e79895a579358aa","type":"Feature","geometry":{"type":"Point","coordinates":[21.78336715491238,41.543786426787584]},"properties":{"placename":"مقدونية","hebrewname":"מקדוניה","englishname":"mqdonyah","Description":"","count":1,"Relation":{"Type_Arabic":"-","Type_English":"-","Metropolitan":"-","District":"-","Province":"-"}}},{"_id":"60d325f20e79895a579358af","type":"Feature","geometry":{"type":"Point","coordinates":[31.88357410864257,26.298171202378654]},"properties":{"placename":"برنيق","hebrewname":"ברניק","englishname":"brnyq","Description":"","count":3,"Relation":{"Type_Arabic":"مدينة","Type_English":"city","Metropolitan":"-","District":"-","Province":"-"}}},{"_id":"60d325f20e79895a579358b1","type":"Feature","geometry":{"type":"Point","coordinates":[43.700342700285645,33.31926849892394]},"properties":{"placename":"بادوريا","hebrewname":"באדוריא","englishname":"badorya","Description":"","count":1,"Relation":{"Type_Arabic":"نهر","Type_English":"river","Metropolitan":"نهر عيسى","District":"بغداد","Province":"-"}}},{"_id":"60d325f20e79895a579358b7","type":"Feature","geometry":{"type":"Point","coordinates":[43.96833,13.39028]},"properties":{"placename":"نجد","hebrewname":"נגד","englishname":"njd","Description":"","count":1,"Relation":{"Type_Arabic":"لغة","Type_English":"language","Metropolitan":"عجب","District":"مهرة","Province":"غطفان"}}},{"_id":"60d325f20e79895a579358bb","type":"Feature","geometry":{"type":"Point","coordinates":[44.3861071593833,33.316771742133525]},"properties":{"placename":"زوراء","hebrewname":"זוראא","englishname":"zoraa","Description":"","count":1,"Relation":{"Type_Arabic":"أرض","Type_English":"land","Metropolitan":"الحال","District":"-","Province":"-"}}},{"_id":"60d325f20e79895a579358c2","type":"Feature","geometry":{"type":"Point","coordinates":[44.51401311236352,15.883840988643882]},"properties":{"placename":"حمير","hebrewname":"חמיר","englishname":"Hmyr","Description":"","count":10,"Relation":{"Type_Arabic":"موضع","Type_English":"place","Metropolitan":"نسل","District":"-","Province":"اليمن"}}},{"_id":"60d325f20e79895a579358ca","type":"Feature","geometry":{"type":"Point","coordinates":[35.9201778,31.95719553]},"properties":{"placename":"الربض","hebrewname":"אלרבד","englishname":"alrbD","Description":"","count":2,"Relation":{"Type_Arabic":"مدينة","Type_English":"city","Metropolitan":"-","District":"-","Province":"-"}}},{"_id":"60d325f20e79895a579358d2","type":"Feature","geometry":{"type":"Point","coordinates":[39.57787837,24.51631798]},"properties":{"placename":"طيبة","hebrewname":"טיבה","englishname":"Tybah","Description":"","count":2,"Relation":{"Type_Arabic":"مدينة","Type_English":"city","Metropolitan":"برق","District":"يثرب","Province":"-"}}},{"_id":"60d325f20e79895a579358d3","type":"Feature","geometry":{"type":"Point","coordinates":[39.82753687,21.42242928]},"properties":{"placename":"الصفا","hebrewname":"אלצפא","englishname":"alSfa","Description":"","count":11,"Relation":{"Type_Arabic":"طريق","Type_English":"road","Metropolitan":"تميم","District":"البحرين","Province":"-"}}},{"_id":"60d325f20e79895a579358e2","type":"Feature","geometry":{"type":"Point","coordinates":[10.705973538057028,34.73513951660314]},"properties":{"placename":"أسفاقس","hebrewname":"אספאקס","englishname":"Asfaqs","Description":"","count":2,"Relation":{"Type_Arabic":"مدينة","Type_English":"city","Metropolitan":"قابس","District":"-","Province":"إفريقية"}}},{"_id":"60d325f20e79895a579358ec","type":"Feature","geometry":{"type":"Point","coordinates":[-9.510772875,30.36088862]},"properties":{"placename":"سوس","hebrewname":"סוס","englishname":"sos","Description":"","count":17,"Relation":{"Type_Arabic":"-","Type_English":"-","Metropolitan":"-","District":"-","Province":"-"}}},{"_id":"60d325f20e79895a579358f5","type":"Feature","geometry":{"type":"Point","coordinates":[-4.42663,31.9314]},"properties":{"placename":"زيز","hebrewname":"זיז","englishname":"zyz","Description":"","count":14,"Relation":{"Type_Arabic":"-","Type_English":"-","Metropolitan":"-","District":"-","Province":"-"}}},{"_id":"60d325f20e79895a579358fc","type":"Feature","geometry":{"type":"Point","coordinates":[37.95495,36.52815]},"properties":{"placename":" منبج","hebrewname":" מנבג","englishname":" mnbj","Description":"","count":2,"Relation":{"Type_Arabic":"-","Type_English":"-","Metropolitan":"-","District":"-","Province":"-"}}},{"_id":"60d325f20e79895a5793590f","type":"Feature","geometry":{"type":"Point","coordinates":[35.58444,33.54167]},"properties":{"placename":"جرة","hebrewname":"גרה","englishname":"jrah","Description":"","count":9,"Relation":{"Type_Arabic":"-","Type_English":"-","Metropolitan":"-","District":"-","Province":"-"}}},{"_id":"60d325f20e79895a57935918","type":"Feature","geometry":{"type":"Point","coordinates":[44.29966,13.18179]},"properties":{"placename":"طور","hebrewname":"טור","englishname":"Tor","Description":"","count":2,"Relation":{"Type_Arabic":"جبل","Type_English":"mountain","Metropolitan":"تستر","District":"-","Province":"-"}}},{"_id":"60d325f20e79895a57935937","type":"Feature","geometry":{"type":"Point","coordinates":[34.75224,32.05043]},"properties":{"placename":"يافا","hebrewname":"יאפא","englishname":"yafa","Description":"","count":1,"Relation":{"Type_Arabic":"مدينة","Type_English":"city","Metropolitan":"-","District":"فلسطين","Province":"-"}}},{"_id":"60d325f20e79895a57935942","type":"Feature","geometry":{"type":"Point","coordinates":[44.11469,13.83446]},"properties":{"placename":"ذي","hebrewname":"די","englishname":"Vy","Description":"","count":139,"Relation":{"Type_Arabic":"-","Type_English":"-","Metropolitan":"-","District":"-","Province":"-"}}},{"_id":"60d325f20e79895a5793594b","type":"Feature","geometry":{"type":"Point","coordinates":[36.0835,34.99174]},"properties":{"placename":"بدر","hebrewname":"בדר","englishname":"bdr","Description":"","count":6,"Relation":{"Type_Arabic":"-","Type_English":"-","Metropolitan":"دقرى","District":"-","Province":"-"}}},{"_id":"60d325f20e79895a5793594d","type":"Feature","geometry":{"type":"Point","coordinates":[39.8262,21.42249]},"properties":{"placename":"منى","hebrewname":"מנא","englishname":"mna","Description":"","count":1,"Relation":{"Type_Arabic":"بليدة","Type_English":"small town","Metropolitan":"منى","District":"-","Province":"-"}}},{"_id":"60d325f20e79895a57935958","type":"Feature","geometry":{"type":"Point","coordinates":[54.43805009,28.67982832]},"properties":{"placename":"جوزجان","hebrewname":"גוזגאנ","englishname":"jozjan","Description":"","count":9,"Relation":{"Type_Arabic":"-","Type_English":"-","Metropolitan":"خوط","District":"بلخ","Province":"-"}}},{"_id":"60d325f20e79895a57935962","type":"Feature","geometry":{"type":"Point","coordinates":[8.96903,33.70439]},"properties":{"placename":"قبلي","hebrewname":"קבלי","englishname":"qbly","Description":"","count":3,"Relation":{"Type_Arabic":"-","Type_English":"-","Metropolitan":"-","District":"-","Province":"-"}}},{"_id":"60d325f20e79895a57935973","type":"Feature","geometry":{"type":"Point","coordinates":[36.67693,35.6483]},"properties":{"placename":"معرة","hebrewname":"מערה","englishname":"marah","Description":"","count":1,"Relation":{"Type_Arabic":"-","Type_English":"-","Metropolitan":"-","District":"-","Province":"-"}}},{"_id":"60d325f20e79895a57935976","type":"Feature","geometry":{"type":"Point","coordinates":[50.0129388,26.57383575]},"properties":{"placename":"القطيف","hebrewname":"אלקטיפ","englishname":"alqTyf","Description":"","count":1,"Relation":{"Type_Arabic":"مدينة","Type_English":"city","Metropolitan":"العلاء","District":"البحرين","Province":"-"}}},{"_id":"60d325f20e79895a57935987","type":"Feature","geometry":{"type":"Point","coordinates":[77.19210058,28.63100862]},"properties":{"placename":"دهلي","hebrewname":"דהלי","englishname":"dhly","Description":"","count":5,"Relation":{"Type_Arabic":"-","Type_English":"-","Metropolitan":"-","District":"-","Province":"-"}}},{"_id":"60d325f20e79895a57935774","type":"Feature","geometry":{"type":"Point","coordinates":[44.60075,31.96257]},"properties":{"placename":"الشامية","hebrewname":"אלשאמיה","englishname":"alshamyah","Description":"","count":1,"Relation":{"Type_Arabic":"-","Type_English":"-","Metropolitan":"-","District":"-","Province":"-"}}},{"_id":"60d325f20e79895a5793578a","type":"Feature","geometry":{"type":"Point","coordinates":[35.49442,33.88894]},"properties":{"placename":"بيروت","hebrewname":"בירות","englishname":"byrot","Description":"","count":2,"Relation":{"Type_Arabic":"مدينة","Type_English":"city","Metropolitan":"بحر شام","District":"دمشق","Province":"-"}}},{"_id":"60d325f20e79895a5793579b","type":"Feature","geometry":{"type":"Point","coordinates":[44.73548651,35.59381725]},"properties":{"placename":"شهرزور","hebrewname":"שהרזור","englishname":"shhrzor","Description":"","count":1,"Relation":{"Type_Arabic":"كورة","Type_English":"town","Metropolitan":"السلق","District":"-","Province":"-"}}},{"_id":"60d325f20e79895a57935789","type":"Feature","geometry":{"type":"Point","coordinates":[1.2714345696949076,35.584270005600686]},"properties":{"placename":"تيدة","hebrewname":"תידה","englishname":"tydah","Description":"","count":1,"Relation":{"Type_Arabic":"قرية","Type_English":"village","Metropolitan":"-","District":"-","Province":"مصر"}}},{"_id":"60d325f20e79895a579357a0","type":"Feature","geometry":{"type":"Point","coordinates":[34.85326253967858,32.129172767407255]},"properties":{"placename":"بيت جبرين","hebrewname":"בית גברינ","englishname":"bayt jebreen","Description":"","count":1,"Relation":{"Type_Arabic":"لغة","Type_English":"language","Metropolitan":"المقدس","District":"فلسطين","Province":"-"}}},{"_id":"60d325f20e79895a579357a5","type":"Feature","geometry":{"type":"Point","coordinates":[-3.4738683731042985,32.56050396956379]},"properties":{"placename":"غزوان","hebrewname":"עזואנ","englishname":"gzoan","Description":"","count":4,"Relation":{"Type_Arabic":"جبل","Type_English":"mountain","Metropolitan":"-","District":"الطائف","Province":"-"}}},{"_id":"60d325f20e79895a579357b2","type":"Feature","geometry":{"type":"Point","coordinates":[38.29824515,34.33814673]},"properties":{"placename":"حمص","hebrewname":"חמצ","englishname":"HmS","Description":"","count":13,"Relation":{"Type_Arabic":"طريق","Type_English":"road","Metropolitan":"قبلة","District":"-","Province":"الشام"}}},{"_id":"60d325f20e79895a579357b7","type":"Feature","geometry":{"type":"Point","coordinates":[32.55197506,23.23416876]},"properties":{"placename":"أسوان","hebrewname":"אסואנ","englishname":"Asoan","Description":"","count":3,"Relation":{"Type_Arabic":"مدينة","Type_English":"city","Metropolitan":"تمر","District":"الحجاز","Province":"العراق"}}},{"_id":"60d325f20e79895a579357bb","type":"Feature","geometry":{"type":"Point","coordinates":[45.0650451,31.87305046]},"properties":{"placename":"القادسية","hebrewname":"אלקאדסיה","englishname":"alqadsyah","Description":"","count":1,"Relation":{"Type_Arabic":"موضع","Type_English":"place","Metropolitan":"القادسية","District":"جرى","Province":"-"}}},{"_id":"60d325f20e79895a579357bf","type":"Feature","geometry":{"type":"Point","coordinates":[66.8972,36.75635]},"properties":{"placename":"بلخ","hebrewname":"בלח","englishname":"blx","Description":"","count":37,"Relation":{"Type_Arabic":"مدينة","Type_English":"city","Metropolitan":"سعد","District":"سمرقند","Province":"خراسان"}}},{"_id":"60d325f20e79895a579357d8","type":"Feature","geometry":{"type":"Point","coordinates":[12.4638911,41.9038537]},"properties":{"placename":"رومة","hebrewname":"רומה","englishname":"romah","Description":"","count":1,"Relation":{"Type_Arabic":"بئر","Type_English":"well","Metropolitan":"سلع","District":"-","Province":"-"}}},{"_id":"60d325f20e79895a579357df","type":"Feature","geometry":{"type":"Point","coordinates":[34.92059649,32.5101486]},"properties":{"placename":"قيسارية","hebrewname":"קיסאריה","englishname":"qysaryah","Description":"","count":2,"Relation":{"Type_Arabic":"قرى","Type_English":"villages","Metropolitan":"بحر شام","District":"فلسطين","Province":"الشام"}}},{"_id":"60d325f20e79895a579357f1","type":"Feature","geometry":{"type":"Point","coordinates":[9.184162,36.726581]},"properties":{"placename":"باجة","hebrewname":"באגה","englishname":"bajah","Description":"","count":4,"Relation":{"Type_Arabic":"مواضع","Type_English":"places","Metropolitan":"اجة","District":"-","Province":"إفريقية"}}},{"_id":"60d325f20e79895a5793580c","type":"Feature","geometry":{"type":"Point","coordinates":[44.53483654,40.24993891]},"properties":{"placename":"أرمينية","hebrewname":"ארמיניה","englishname":"Armynyah","Description":"","count":12,"Relation":{"Type_Arabic":"-","Type_English":"-","Metropolitan":"دبيل","District":"-","Province":"أذربيجان"}}},{"_id":"60d325f20e79895a57935810","type":"Feature","geometry":{"type":"Point","coordinates":[43.97221505094734,13.383460940470298]},"properties":{"placename":"المعافر","hebrewname":"אלמעאפר","englishname":"almaafr","Description":"","count":2,"Relation":{"Type_Arabic":"-","Type_English":"-","Metropolitan":"-","District":"-","Province":"-"}}},{"_id":"60d325f20e79895a5793582d","type":"Feature","geometry":{"type":"Point","coordinates":[35.00778,29.52667]},"properties":{"placename":"عقبة","hebrewname":"עקבה","englishname":"aqbah","Description":"","count":11,"Relation":{"Type_Arabic":"جبل","Type_English":"mountain","Metropolitan":"منى","District":"مكة","Province":"-"}}},{"_id":"60d325f20e79895a57935834","type":"Feature","geometry":{"type":"Point","coordinates":[56.05285212,20.55560458]},"properties":{"placename":"عمان","hebrewname":"עמאנ","englishname":"aman","Description":"","count":16,"Relation":{"Type_Arabic":"كورة","Type_English":"town","Metropolitan":"أطراف","District":"الشحر","Province":"البصرة"}}},{"_id":"60d325f20e79895a57935860","type":"Feature","geometry":{"type":"Point","coordinates":[29.91249265,31.19023153]},"properties":{"placename":"البلينا","hebrewname":"אלבלינא","englishname":"alblyna","Description":"","count":2,"Relation":{"Type_Arabic":"-","Type_English":"-","Metropolitan":"-","District":"-","Province":"-"}}},{"_id":"60d325f20e79895a57935865","type":"Feature","geometry":{"type":"Point","coordinates":[32.30199568936306,31.266757495822105]},"properties":{"placename":"الفرما","hebrewname":"אלפרמא","englishname":"alfrma","Description":"","count":3,"Relation":{"Type_Arabic":"مدينة","Type_English":"city","Metropolitan":"بحر مغرب","District":"تنيس","Province":"مصر"}}},{"_id":"60d325f20e79895a5793586a","type":"Feature","geometry":{"type":"Point","coordinates":[35.19470215,31.76320221]},"properties":{"placename":"فلسطين","hebrewname":"פלסטינ","englishname":"flsTyn","Description":"","count":12,"Relation":{"Type_Arabic":"أرض","Type_English":"land","Metropolitan":"الرملة","District":"-","Province":"الشام"}}},{"_id":"60d325f20e79895a57935873","type":"Feature","geometry":{"type":"Point","coordinates":[58.18911,23.67027]},"properties":{"placename":"السيب","hebrewname":"אלסיב","englishname":"alsyb","Description":"","count":2,"Relation":{"Type_Arabic":"كورة","Type_English":"town","Metropolitan":"سورا","District":"السواد","Province":"الكوفة"}}},{"_id":"60d325f20e79895a57935874","type":"Feature","geometry":{"type":"Point","coordinates":[34.86563,31.92923]},"properties":{"placename":"الرملة","hebrewname":"אלרמלה","englishname":"alrmlah","Description":"","count":6,"Relation":{"Type_Arabic":"رمل","Type_English":"sand (desert)","Metropolitan":"القطيف","District":"فلسطين","Province":"الشام"}}},{"_id":"60d325f20e79895a5793588d","type":"Feature","geometry":{"type":"Point","coordinates":[35.651971075308666,34.12310786981426]},"properties":{"placename":"وجبيل","hebrewname":"וגביל","englishname":"ojbyl","Description":"","count":1,"Relation":{"Type_Arabic":"-","Type_English":"-","Metropolitan":"-","District":"-","Province":"-"}}},{"_id":"60d325f20e79895a5793589d","type":"Feature","geometry":{"type":"Point","coordinates":[0.5760650275551278,40.88978069157077]},"properties":{"placename":"طرطوشة","hebrewname":"טרטושה","englishname":"TrToshah","Description":"","count":2,"Relation":{"Type_Arabic":"مدينة","Type_English":"city","Metropolitan":"بلنسية","District":"-","Province":"-"}}},{"_id":"60d325f20e79895a579358c8","type":"Feature","geometry":{"type":"Point","coordinates":[65.75012614880136,36.68192918174525]},"properties":{"placename":"شبورقان","hebrewname":"שבורקאנ","englishname":"shborqan","Description":"","count":1,"Relation":{"Type_Arabic":"مدينة","Type_English":"city","Metropolitan":"-","District":"-","Province":"-"}}},{"_id":"60d325f20e79895a579358cf","type":"Feature","geometry":{"type":"Point","coordinates":[-2.47278,42.35837]},"properties":{"placename":"البيضاء","hebrewname":"אלבידאא","englishname":"albyDaa","Description":"","count":1,"Relation":{"Type_Arabic":"مدينة","Type_English":"city","Metropolitan":"إصطخر","District":"بغداد","Province":"-"}}},{"_id":"60d325f20e79895a579358d1","type":"Feature","geometry":{"type":"Point","coordinates":[57.28588989504007,30.065778432582725]},"properties":{"placename":"ماهان","hebrewname":"מאהאנ","englishname":"mahan","Description":"","count":4,"Relation":{"Type_Arabic":"قصبة","Type_English":"kasbah (city center)","Metropolitan":"ماه البصرة","District":"-","Province":"-"}}},{"_id":"60d325f20e79895a579358e5","type":"Feature","geometry":{"type":"Point","coordinates":[36.1008225,32.62559581]},"properties":{"placename":"درعة","hebrewname":"דרעה","englishname":"draah","Description":"","count":1,"Relation":{"Type_Arabic":"مدينة","Type_English":"city","Metropolitan":"-","District":"-","Province":"المغرب"}}},{"_id":"60d325f20e79895a579358fe","type":"Feature","geometry":{"type":"Point","coordinates":[36.21806,34.00583]},"properties":{"placename":" بعلبك","hebrewname":" בעלבכ","englishname":" balbk","Description":"","count":2,"Relation":{"Type_Arabic":"-","Type_English":"-","Metropolitan":"-","District":"-","Province":"-"}}},{"_id":"60d325f20e79895a5793590c","type":"Feature","geometry":{"type":"Point","coordinates":[53.6482,28.9383]},"properties":{"placename":"فسا","hebrewname":"פסא","englishname":"fsa","Description":"","count":11,"Relation":{"Type_Arabic":"مدينة","Type_English":"city","Metropolitan":"دارابجرد","District":"-","Province":"-"}}},{"_id":"60d325f20e79895a57935923","type":"Feature","geometry":{"type":"Point","coordinates":[44.40514,14.54274]},"properties":{"placename":"ذمار","hebrewname":"דמאר","englishname":"Vmar","Description":"","count":1,"Relation":{"Type_Arabic":"قرية","Type_English":"village","Metropolitan":"-","District":"ذمار","Province":"اليمن"}}},{"_id":"60d325f20e79895a57935928","type":"Feature","geometry":{"type":"Point","coordinates":[35.82998878,33.27932977]},"properties":{"placename":"حوران","hebrewname":"חוראנ","englishname":"Horan","Description":"","count":1,"Relation":{"Type_Arabic":"كور","Type_English":"district","Metropolitan":"الغور","District":"دمشق","Province":"الشام"}}},{"_id":"60d325f20e79895a57935961","type":"Feature","geometry":{"type":"Point","coordinates":[68.25175,43.29733]},"properties":{"placename":"التغزغز","hebrewname":"אלתעזעז","englishname":"altgzgz","Description":"","count":1,"Relation":{"Type_Arabic":"-","Type_English":"-","Metropolitan":"-","District":"-","Province":"-"}}},{"_id":"60d325f20e79895a57935980","type":"Feature","geometry":{"type":"Point","coordinates":[-5.5539518,7.626106171]},"properties":{"placename":"العاج","hebrewname":"אלעאג","englishname":"alaaj","Description":"","count":1,"Relation":{"Type_Arabic":"-","Type_English":"-","Metropolitan":"-","District":"-","Province":"-"}}},{"_id":"60d325f20e79895a57935983","type":"Feature","geometry":{"type":"Point","coordinates":[35.2036,31.8508]},"properties":{"placename":"بير","hebrewname":"ביר","englishname":"byr","Description":"","count":61,"Relation":{"Type_Arabic":"-","Type_English":"-","Metropolitan":"-","District":"-","Province":"-"}}},{"_id":"60d325f20e79895a5793598f","type":"Feature","geometry":{"type":"Point","coordinates":[39.82572268,21.40838885]},"properties":{"placename":"حراء","hebrewname":"חראא","englishname":"Hraa","Description":"","count":11,"Relation":{"Type_Arabic":"جبل","Type_English":"mountain","Metropolitan":"جبال عرفات","District":"-","Province":"-"}}},{"_id":"60d325f20e79895a5793577d","type":"Feature","geometry":{"type":"Point","coordinates":[16.166120667576312,29.224926304017316]},"properties":{"placename":"ودان","hebrewname":"ודאן","englishname":"waddan","Description":"","count":1,"Relation":{"Type_Arabic":"مواضع","Type_English":"places","Metropolitan":"صدر","District":"الحجاز","Province":"-"}}},{"_id":"60d325f20e79895a57935780","type":"Feature","geometry":{"type":"Point","coordinates":[48.29365261,38.24890326]},"properties":{"placename":"أردبيل","hebrewname":"ארדביל","englishname":"Ardbyl","Description":"","count":3,"Relation":{"Type_Arabic":"مدينة","Type_English":"city","Metropolitan":"صورة","District":"-","Province":"أذربيجان"}}},{"_id":"60d325f20e79895a57935787","type":"Feature","geometry":{"type":"Point","coordinates":[36.78608728,31.24548624]},"properties":{"placename":"الأردن","hebrewname":"אלארדנ","englishname":"alArdn","Description":"","count":11,"Relation":{"Type_Arabic":"بلد","Type_English":"town","Metropolitan":"طبرية","District":"حلب","Province":"الشام"}}},{"_id":"60d325f20e79895a57935792","type":"Feature","geometry":{"type":"Point","coordinates":[-4.08470432,39.37069944]},"properties":{"placename":"الأندلس","hebrewname":"אלאנדלס","englishname":"alAndls","Description":"","count":15,"Relation":{"Type_Arabic":"جيل","Type_English":"descent","Metropolitan":"جيان","District":"-","Province":"شنتمرية"}}},{"_id":"60d325f20e79895a579357ab","type":"Feature","geometry":{"type":"Point","coordinates":[36.72848,34.02403]},"properties":{"placename":"النبك","hebrewname":"אלנבכ","englishname":"alnbk","Description":"","count":1,"Relation":{"Type_Arabic":"قرية","Type_English":"village","Metropolitan":"-","District":"-","Province":"-"}}},{"_id":"60d325f20e79895a579357b0","type":"Feature","geometry":{"type":"Point","coordinates":[39.6439278,24.39968066]},"properties":{"placename":"قباء","hebrewname":"קבאא","englishname":"qbaa","Description":"","count":3,"Relation":{"Type_Arabic":"-","Type_English":"-","Metropolitan":"-","District":"-","Province":"-"}}},{"_id":"60d325f20e79895a579357c0","type":"Feature","geometry":{"type":"Point","coordinates":[61.01604328415816,29.572891096842394]},"properties":{"placename":"دارم","hebrewname":"דארמ","englishname":"darm","Description":"","count":1,"Relation":{"Type_Arabic":"-","Type_English":"-","Metropolitan":"-","District":"-","Province":"-"}}},{"_id":"60d325f20e79895a579357cc","type":"Feature","geometry":{"type":"Point","coordinates":[39.86850782,21.38929189]},"properties":{"placename":"مكة","hebrewname":"מכה","englishname":"mkah","Description":"","count":34,"Relation":{"Type_Arabic":"مدينة","Type_English":"city","Metropolitan":"سرف","District":"مكة","Province":"البصرة"}}},{"_id":"60d325f20e79895a579357d6","type":"Feature","geometry":{"type":"Point","coordinates":[64.42861,39.77472]},"properties":{"placename":"بخارى","hebrewname":"בחארא","englishname":"bxara","Description":"","count":1,"Relation":{"Type_Arabic":"بلاد","Type_English":"caliphate's country","Metropolitan":"سعد","District":"الباب","Province":"ما وراء النهر"}}},{"_id":"60d325f20e79895a579357db","type":"Feature","geometry":{"type":"Point","coordinates":[44.89924514,41.67265077]},"properties":{"placename":"تفليس","hebrewname":"תפליס","englishname":"tflys","Description":"","count":5,"Relation":{"Type_Arabic":"قصبة","Type_English":"kasbah (city center)","Metropolitan":"حارة","District":"جرزان","Province":"-"}}},{"_id":"60d325f20e79895a579357ea","type":"Feature","geometry":{"type":"Point","coordinates":[51.66847639,32.65989881]},"properties":{"placename":"أصبهان","hebrewname":"אצבהאנ","englishname":"ASbhan","Description":"","count":23,"Relation":{"Type_Arabic":"مدينة","Type_English":"city","Metropolitan":"اللسان","District":"قهاب","Province":"الكوفة"}}},{"_id":"60d325f20e79895a579357eb","type":"Feature","geometry":{"type":"Point","coordinates":[10.80706761,36.80119536]},"properties":{"placename":"سوسة","hebrewname":"סוסה","englishname":"sosah","Description":"","count":4,"Relation":{"Type_Arabic":"مدينة","Type_English":"city","Metropolitan":"البحر المحيط","District":"صقلية","Province":"المغرب"}}},{"_id":"60d325f20e79895a579357ff","type":"Feature","geometry":{"type":"Point","coordinates":[50.0041,36.26877]},"properties":{"placename":"قزوين","hebrewname":"קזוינ","englishname":"qzoyn","Description":"","count":8,"Relation":{"Type_Arabic":"مدينة","Type_English":"city","Metropolitan":"زنجان","District":"اللوح","Province":"-"}}},{"_id":"60d325f20e79895a5793580e","type":"Feature","geometry":{"type":"Point","coordinates":[31.331595800622697,30.126985314638784]},"properties":{"placename":"عين شمس","hebrewname":"עינ שמס","englishname":"ayn shms","Description":"","count":1,"Relation":{"Type_Arabic":"مدينة","Type_English":"city","Metropolitan":"قبة","District":"-","Province":"-"}}},{"_id":"60d325f20e79895a5793582a","type":"Feature","geometry":{"type":"Point","coordinates":[44.3915976,33.29761532]},"properties":{"placename":"بالعراق","hebrewname":"באלעראק","englishname":"balaraq","Description":"","count":2,"Relation":{"Type_Arabic":"-","Type_English":"-","Metropolitan":"-","District":"-","Province":"-"}}},{"_id":"60d325f20e79895a57935835","type":"Feature","geometry":{"type":"Point","coordinates":[62.19967,34.34817]},"properties":{"placename":"هراة","hebrewname":"הראה","englishname":"hraah","Description":"","count":4,"Relation":{"Type_Arabic":"مدينة","Type_English":"city","Metropolitan":"عامر","District":"سرخس","Province":"الصين"}}},{"_id":"60d325f20e79895a5793583a","type":"Feature","geometry":{"type":"Point","coordinates":[48.84079405,32.04350086]},"properties":{"placename":"تستر","hebrewname":"תסתר","englishname":"tstr","Description":"","count":2,"Relation":{"Type_Arabic":"مدينة","Type_English":"city","Metropolitan":"الحجارة","District":"العرق","Province":"خوزستان"}}},{"_id":"60d325f20e79895a5793583b","type":"Feature","geometry":{"type":"Point","coordinates":[62.46320569,41.60526788]},"properties":{"placename":"خوارزم","hebrewname":"חוארזמ","englishname":"xoarzm","Description":"","count":9,"Relation":{"Type_Arabic":"ناحية","Type_English":"district","Metropolitan":"الجرجانية","District":"جرى","Province":"خراسان"}}},{"_id":"60d325f20e79895a5793584a","type":"Feature","geometry":{"type":"Point","coordinates":[36.15722,36.20655]},"properties":{"placename":"أنطاكية","hebrewname":"אנטאכיה","englishname":"AnTakyah","Description":"","count":3,"Relation":{"Type_Arabic":"نخل","Type_English":"date palm orchard","Metropolitan":"قسطنطينية","District":"السور","Province":"نوبة"}}},{"_id":"60d325f20e79895a5793585e","type":"Feature","geometry":{"type":"Point","coordinates":[51.70418191565291,32.681285172512446]},"properties":{"placename":"كنداكين","hebrewname":"כנדאכינ","englishname":"kndakyn","Description":"","count":1,"Relation":{"Type_Arabic":"قرية","Type_English":"village","Metropolitan":"الصغد","District":"-","Province":"-"}}},{"_id":"60d325f20e79895a57935863","type":"Feature","geometry":{"type":"Point","coordinates":[-5.97317,37.38283]},"properties":{"placename":"إشبيلية","hebrewname":"אישביליה","englishname":"Ashbylyah","Description":"","count":2,"Relation":{"Type_Arabic":"جبل","Type_English":"mountain","Metropolitan":"لبلة","District":"دجلة","Province":"-"}}},{"_id":"60d325f20e79895a57935876","type":"Feature","geometry":{"type":"Point","coordinates":[-4.288322071,31.27651737]},"properties":{"placename":"سجلماسة","hebrewname":"סגלמאסה","englishname":"sjlmasah","Description":"","count":6,"Relation":{"Type_Arabic":"مدينة","Type_English":"city","Metropolitan":"ناس","District":"-","Province":"المغرب"}}},{"_id":"60d325f20e79895a5793588e","type":"Feature","geometry":{"type":"Point","coordinates":[48.37446,34.19088]},"properties":{"placename":"نهاوند","hebrewname":"נהאונד","englishname":"nhaond","Description":"","count":4,"Relation":{"Type_Arabic":"مدينة","Type_English":"city","Metropolitan":"قبلة","District":"-","Province":"-"}}},{"_id":"60d325f20e79895a57935899","type":"Feature","geometry":{"type":"Point","coordinates":[15.12238012,26.16768511]},"properties":{"placename":"زويلة","hebrewname":"זוילה","englishname":"zoylah","Description":"","count":6,"Relation":{"Type_Arabic":"مرحلة","Type_English":"travelers station","Metropolitan":"إمرة","District":"برقة","Province":"إفريقية"}}},{"_id":"60d325f20e79895a579358d4","type":"Feature","geometry":{"type":"Point","coordinates":[43.32162367,14.21421632]},"properties":{"placename":"غلافقة","hebrewname":"עלאפקה","englishname":"glafqah","Description":"","count":2,"Relation":{"Type_Arabic":"بلد","Type_English":"town","Metropolitan":"بحر يمن","District":"-","Province":"-"}}},{"_id":"60d325f20e79895a579358d8","type":"Feature","geometry":{"type":"Point","coordinates":[44.58219719116337,33.1000723981294]},"properties":{"placename":"بهرسير","hebrewname":"בהרסיר","englishname":"bhrsyr","Description":"","count":0,"Relation":{"Type_Arabic":"مدينة","Type_English":"city","Metropolitan":"جنديسابور","District":"-","Province":"-"}}},{"_id":"60d325f20e79895a579358e0","type":"Feature","geometry":{"type":"Point","coordinates":[52.68691043,29.21294878]},"properties":{"placename":"كوار","hebrewname":"כואר","englishname":"koar","Description":"","count":5,"Relation":{"Type_Arabic":"بلدة","Type_English":"town","Metropolitan":"-","District":"-","Province":"فارس"}}},{"_id":"60d325f20e79895a57935904","type":"Feature","geometry":{"type":"Point","coordinates":[69.20730699,34.55225588]},"properties":{"placename":" كابل","hebrewname":" כאבל","englishname":" kabl","Description":"","count":8,"Relation":{"Type_Arabic":"-","Type_English":"-","Metropolitan":"-","District":"-","Province":"-"}}},{"_id":"60d325f20e79895a5793590e","type":"Feature","geometry":{"type":"Point","coordinates":[52.90922,29.98133]},"properties":{"placename":"إصطخر","hebrewname":"איצטחר","englishname":"ASTxr","Description":"","count":1,"Relation":{"Type_Arabic":"بلدة","Type_English":"town","Metropolitan":"جبال إصطخر","District":"السور","Province":"فارس"}}},{"_id":"60d325f20e79895a5793592a","type":"Feature","geometry":{"type":"Point","coordinates":[-9.389296349,30.90415153]},"properties":{"placename":"جرار","hebrewname":"גראר","englishname":"jrar","Description":"","count":1,"Relation":{"Type_Arabic":"جبل","Type_English":"mountain","Metropolitan":"الأبلق","District":"-","Province":"-"}}},{"_id":"60d325f20e79895a57935930","type":"Feature","geometry":{"type":"Point","coordinates":[20.25205,31.66818]},"properties":{"placename":"سلوق","hebrewname":"סלוק","englishname":"sloq","Description":"","count":1,"Relation":{"Type_Arabic":"مدينة","Type_English":"city","Metropolitan":"-","District":"-","Province":"اليمن"}}},{"_id":"60d325f20e79895a57935932","type":"Feature","geometry":{"type":"Point","coordinates":[35.73463007,33.10951297]},"properties":{"placename":"الجولان","hebrewname":"אלגולאנ","englishname":"aljolan","Description":"","count":1,"Relation":{"Type_Arabic":"جبل","Type_English":"mountain","Metropolitan":"-","District":"دمشق","Province":"-"}}},{"_id":"60d325f20e79895a5793596f","type":"Feature","geometry":{"type":"Point","coordinates":[42.50350021,18.22855867]},"properties":{"placename":"الأزد","hebrewname":"אלאזד","englishname":"alAzd","Description":"","count":12,"Relation":{"Type_Arabic":"-","Type_English":"-","Metropolitan":"-","District":"-","Province":"-"}}},{"_id":"60d325f20e79895a5793597b","type":"Feature","geometry":{"type":"Point","coordinates":[36.78608728,31.24548624]},"properties":{"placename":"المملكة","hebrewname":"אלממלכה","englishname":"almmlkah","Description":"","count":2,"Relation":{"Type_Arabic":"-","Type_English":"-","Metropolitan":"-","District":"-","Province":"-"}}},{"_id":"60d325f20e79895a5793597e","type":"Feature","geometry":{"type":"Point","coordinates":[51.50583,25.68389]},"properties":{"placename":"الخور","hebrewname":"אלחור","englishname":"alxor","Description":"","count":1,"Relation":{"Type_Arabic":"ساحل","Type_English":"coast","Metropolitan":"حرض","District":"-","Province":"اليمن"}}},{"_id":"60d325f20e79895a5793598b","type":"Feature","geometry":{"type":"Point","coordinates":[29.88079617,26.49020141]},"properties":{"placename":"نيل مصر","hebrewname":"ניל מצר","englishname":"nyl mSr","Description":"","count":3,"Relation":{"Type_Arabic":"-","Type_English":"-","Metropolitan":"-","District":"-","Province":"-"}}},{"_id":"60d325f20e79895a57935997","type":"Feature","geometry":{"type":"Point","coordinates":[71.50211438,30.16396692]},"properties":{"placename":"ملتان","hebrewname":"מלתאנ","englishname":"mltan","Description":"","count":1,"Relation":{"Type_Arabic":"مدينة","Type_English":"city","Metropolitan":"كبر","District":"حد سمندور","Province":"هند"}}},{"_id":"60d325f20e79895a57935998","type":"Feature","geometry":{"type":"Point","coordinates":[3.897703359,36.90601491]},"properties":{"placename":"دلس","hebrewname":"דלס","englishname":"dls","Description":"","count":15,"Relation":{"Type_Arabic":"-","Type_English":"-","Metropolitan":"-","District":"-","Province":"-"}}},{"_id":"60d325f20e79895a5793579e","type":"Feature","geometry":{"type":"Point","coordinates":[79.61702628,23.0103574]},"properties":{"placename":"الهند","hebrewname":"אלהנד","englishname":"alhnd","Description":"","count":29,"Relation":{"Type_Arabic":"-","Type_English":"-","Metropolitan":"-","District":"-","Province":"-"}}},{"_id":"60d325f20e79895a579357b8","type":"Feature","geometry":{"type":"Point","coordinates":[31.24069,30.9616]},"properties":{"placename":"سمنود","hebrewname":"סמנוד","englishname":"smnod","Description":"","count":1,"Relation":{"Type_Arabic":"بلد","Type_English":"town","Metropolitan":"بحر دمياط","District":"-","Province":"مصر"}}},{"_id":"60d325f20e79895a579357c2","type":"Feature","geometry":{"type":"Point","coordinates":[44.57038666,32.21929118]},"properties":{"placename":"الحيرة","hebrewname":"אלחירה","englishname":"alHyrah","Description":"","count":8,"Relation":{"Type_Arabic":"ما","Type_English":"water","Metropolitan":"دارا","District":"الموصل","Province":"اليمن"}}},{"_id":"60d325f20e79895a579357de","type":"Feature","geometry":{"type":"Point","coordinates":[36.03825,35.78656]},"properties":{"placename":"ربيعة","hebrewname":"רביעה","englishname":"rbyaah","Description":"","count":20,"Relation":{"Type_Arabic":"قرية","Type_English":"village","Metropolitan":"المعركة","District":"-","Province":"-"}}},{"_id":"60d325f20e79895a5793580b","type":"Feature","geometry":{"type":"Point","coordinates":[39.19797,21.54238]},"properties":{"placename":"جدة","hebrewname":"גדה","englishname":"jdah","Description":"","count":2,"Relation":{"Type_Arabic":"-","Type_English":"-","Metropolitan":"ود","District":"-","Province":"-"}}},{"_id":"60d325f20e79895a57935823","type":"Feature","geometry":{"type":"Point","coordinates":[69.17233,34.52813]},"properties":{"placename":"كابل","hebrewname":"כאבל","englishname":"kabl","Description":"","count":11,"Relation":{"Type_Arabic":"أرض","Type_English":"land","Metropolitan":"خواش","District":"الشرقية","Province":"طخارستان"}}},{"_id":"60d325f20e79895a57935837","type":"Feature","geometry":{"type":"Point","coordinates":[3.0758109987777114,36.74889722324946]},"properties":{"placename":"الحامة","hebrewname":"אלחאמה","englishname":"alHamah","Description":"","count":1,"Relation":{"Type_Arabic":"-","Type_English":"-","Metropolitan":"-","District":"-","Province":"-"}}},{"_id":"60d325f20e79895a5793583d","type":"Feature","geometry":{"type":"Point","coordinates":[-0.38411086257229643,42.25278950430158]},"properties":{"placename":"وشقة","hebrewname":"ושקה","englishname":"oshqah","Description":"","count":1,"Relation":{"Type_Arabic":"بليد","Type_English":"small town","Metropolitan":"العلم","District":"-","Province":"-"}}},{"_id":"60d325f20e79895a57935867","type":"Feature","geometry":{"type":"Point","coordinates":[9.756251674,33.4883845]},"properties":{"placename":"مطماطة","hebrewname":"מטמאטה","englishname":"mTmaTah","Description":"","count":3,"Relation":{"Type_Arabic":"-","Type_English":"-","Metropolitan":"-","District":"-","Province":"-"}}},{"_id":"60d325f20e79895a5793586f","type":"Feature","geometry":{"type":"Point","coordinates":[43.64119025614795,41.63727627527494]},"properties":{"placename":"الكرج","hebrewname":"אלכרג","englishname":"alkrj","Description":"","count":7,"Relation":{"Type_Arabic":"بلدة","Type_English":"town","Metropolitan":"روذراور","District":"همذان","Province":"-"}}},{"_id":"60d325f20e79895a57935895","type":"Feature","geometry":{"type":"Point","coordinates":[35.207371241699654,31.770654019285736]},"properties":{"placename":"إيليا","hebrewname":"אייליא","englishname":"Aylya","Description":"","count":2,"Relation":{"Type_Arabic":"-","Type_English":"-","Metropolitan":"-","District":"-","Province":"-"}}},{"_id":"60d325f20e79895a5793589c","type":"Feature","geometry":{"type":"Point","coordinates":[52.37122481808252,33.383225769608046]},"properties":{"placename":"أردستان","hebrewname":"ארדסתאנ","englishname":"Ardstan","Description":"","count":1,"Relation":{"Type_Arabic":"مدينة","Type_English":"city","Metropolitan":"العلم","District":"أصبهان","Province":"-"}}},{"_id":"60d325f20e79895a5793589f","type":"Feature","geometry":{"type":"Point","coordinates":[37.21644,19.61745]},"properties":{"placename":"سودان","hebrewname":"סודאנ","englishname":"sodan","Description":"","count":9,"Relation":{"Type_Arabic":"-","Type_English":"-","Metropolitan":"سواكن","District":"حد مشرق","Province":"زافون"}}},{"_id":"60d325f20e79895a579358a2","type":"Feature","geometry":{"type":"Point","coordinates":[44.23298953328405,33.85049723678048]},"properties":{"placename":"دجيل","hebrewname":"דגיל","englishname":"djyl","Description":"","count":3,"Relation":{"Type_Arabic":"نهر","Type_English":"river","Metropolitan":"الحظيرة","District":"بغداد","Province":"خوزستان"}}},{"_id":"60d325f20e79895a579358b8","type":"Feature","geometry":{"type":"Point","coordinates":[31.50671755646733,30.42158568876901]},"properties":{"placename":"الجوسق","hebrewname":"אלגוסק","englishname":"aljosq","Description":"","count":5,"Relation":{"Type_Arabic":"مواضع","Type_English":"places","Metropolitan":"دجيل","District":"بغداد","Province":"الري"}}},{"_id":"60d325f20e79895a579358b9","type":"Feature","geometry":{"type":"Point","coordinates":[43.33337725,24.71966332]},"properties":{"placename":"سويقة","hebrewname":"סויקה","englishname":"soyqah","Description":"","count":8,"Relation":{"Type_Arabic":"مواضع","Type_English":"places","Metropolitan":"بني جعفر","District":"-","Province":"الري"}}},{"_id":"60d325f20e79895a579358d6","type":"Feature","geometry":{"type":"Point","coordinates":[43.31518,14.1951]},"properties":{"placename":"زبيد","hebrewname":"זביד","englishname":"zbyd","Description":"","count":4,"Relation":{"Type_Arabic":"واد","Type_English":"valley","Metropolitan":"جبل وصاب","District":"تهامة","Province":"اليمن"}}},{"_id":"60d325f20e79895a579358e4","type":"Feature","geometry":{"type":"Point","coordinates":[1.261241618,36.11492737]},"properties":{"placename":"مكناسة","hebrewname":"מכנאסה","englishname":"mknasah","Description":"","count":1,"Relation":{"Type_Arabic":"مرحلة","Type_English":"travelers station","Metropolitan":"ماردة","District":"-","Province":"المغرب"}}},{"_id":"60d325f20e79895a5793591a","type":"Feature","geometry":{"type":"Point","coordinates":[44.90339746,38.45216033]},"properties":{"placename":"هندوان","hebrewname":"הנדואנ","englishname":"hndoan","Description":"","count":1,"Relation":{"Type_Arabic":"نهر","Type_English":"river","Metropolitan":"-","District":"-","Province":"-"}}},{"_id":"60d325f20e79895a57935925","type":"Feature","geometry":{"type":"Point","coordinates":[84.49139452,40.42216204]},"properties":{"placename":"تركستان","hebrewname":"תרכסתאנ","englishname":"trkstan","Description":"","count":1,"Relation":{"Type_Arabic":"جامع","Type_English":"mosque","Metropolitan":"ترك","District":"-","Province":"ما وراء النهر"}}},{"_id":"60d325f20e79895a57935944","type":"Feature","geometry":{"type":"Point","coordinates":[35.24227,31.71749]},"properties":{"placename":"النعمان","hebrewname":"אלנעמאנ","englishname":"alnaman","Description":"","count":11,"Relation":{"Type_Arabic":"-","Type_English":"-","Metropolitan":"-","District":"-","Province":"-"}}},{"_id":"60d325f20e79895a5793594c","type":"Feature","geometry":{"type":"Point","coordinates":[44.03571,12.89357]},"properties":{"placename":"الشط","hebrewname":"אלשט","englishname":"alshT","Description":"","count":1,"Relation":{"Type_Arabic":"-","Type_English":"-","Metropolitan":"-","District":"-","Province":"-"}}},{"_id":"60d325f20e79895a5793595c","type":"Feature","geometry":{"type":"Point","coordinates":[32.897895,24.041393]},"properties":{"placename":"جزائر","hebrewname":"גזאאר","englishname":"jzaar","Description":"","count":2,"Relation":{"Type_Arabic":"-","Type_English":"-","Metropolitan":"-","District":"-","Province":"-"}}},{"_id":"60d325f20e79895a5793596a","type":"Feature","geometry":{"type":"Point","coordinates":[39.25224249,8.426565179]},"properties":{"placename":"الحبشة","hebrewname":"אלחבשה","englishname":"alHbshah","Description":"","count":1,"Relation":{"Type_Arabic":"-","Type_English":"-","Metropolitan":"-","District":"-","Province":"-"}}},{"_id":"60d325f20e79895a57935972","type":"Feature","geometry":{"type":"Point","coordinates":[27.36772228,37.94923769]},"properties":{"placename":"الأفشين","hebrewname":"אלאפשינ","englishname":"alAfshyn","Description":"","count":2,"Relation":{"Type_Arabic":"-","Type_English":"-","Metropolitan":"-","District":"-","Province":"-"}}},{"_id":"60d325f20e79895a57935981","type":"Feature","geometry":{"type":"Point","coordinates":[35.4657,30.25125]},"properties":{"placename":"الطيبة","hebrewname":"אלטיבה","englishname":"alTybah","Description":"","count":1,"Relation":{"Type_Arabic":"قريتان","Type_English":"neighboring villages","Metropolitan":"-","District":"الصعيد","Province":"-"}}},{"_id":"60d325f20e79895a57935986","type":"Feature","geometry":{"type":"Point","coordinates":[58.49380728,23.62941106]},"properties":{"placename":"القرم","hebrewname":"אלקרמ","englishname":"alqrm","Description":"","count":1,"Relation":{"Type_Arabic":"-","Type_English":"-","Metropolitan":"-","District":"-","Province":"-"}}},{"_id":"60d325f20e79895a5793598d","type":"Feature","geometry":{"type":"Point","coordinates":[35.56994176,32.31821846]},"properties":{"placename":"غور الشام","hebrewname":"עור אלשאמ","englishname":"gor alsham","Description":"","count":1,"Relation":{"Type_Arabic":"-","Type_English":"-","Metropolitan":"-","District":"-","Province":"-"}}},{"_id":"60d325f20e79895a57935995","type":"Feature","geometry":{"type":"Point","coordinates":[52.33951027,27.82103943]},"properties":{"placename":"الجام","hebrewname":"אלגאמ","englishname":"aljam","Description":"","count":17,"Relation":{"Type_Arabic":"-","Type_English":"-","Metropolitan":"-","District":"-","Province":"-"}}},{"_id":"60d325f20e79895a5793599d","type":"Feature","geometry":{"type":"Point","coordinates":[27.87063951,39.67807408]},"properties":{"placename":"بالق","hebrewname":"באלק","englishname":"balq","Description":"","count":10,"Relation":{"Type_Arabic":"-","Type_English":"-","Metropolitan":"-","District":"-","Province":"-"}}},{"_id":"60d325f20e79895a5793577b","type":"Feature","geometry":{"type":"Point","coordinates":[30.91429408185261,30.467867421554583]},"properties":{"placename":"الإفراحون","hebrewname":"אלאיפראחונ","englishname":"alAfraHon","Description":"","count":1,"Relation":{"Type_Arabic":"-","Type_English":"-","Metropolitan":"-","District":"-","Province":"-"}}},{"_id":"60d325f20e79895a5793578b","type":"Feature","geometry":{"type":"Point","coordinates":[45.39065,34.3482]},"properties":{"placename":"خانقين","hebrewname":"חאנקינ","englishname":"xanqyn","Description":"","count":3,"Relation":{"Type_Arabic":"بلدة","Type_English":"town","Metropolitan":"-","District":"السواد","Province":"الكوفة"}}},{"_id":"60d325f20e79895a579357a1","type":"Feature","geometry":{"type":"Point","coordinates":[38.497186,37.61401047]},"properties":{"placename":"شمشاط","hebrewname":"שמשאט","englishname":"shmshaT","Description":"","count":2,"Relation":{"Type_Arabic":"مدينة","Type_English":"city","Metropolitan":"خرتبرت","District":"الفرات","Province":"الروم"}}},{"_id":"60d325f20e79895a579357bc","type":"Feature","geometry":{"type":"Point","coordinates":[29.88079617,26.49020141]},"properties":{"placename":"مصر","hebrewname":"מצר","englishname":"mSr","Description":"","count":51,"Relation":{"Type_Arabic":"بلاد","Type_English":"caliphate's country","Metropolitan":"رشيد","District":"النيل","Province":"غربية"}}},{"_id":"60d325f20e79895a579357dd","type":"Feature","geometry":{"type":"Point","coordinates":[35.11516,31.42013]},"properties":{"placename":"صالح","hebrewname":"צאלח","englishname":"SalH","Description":"","count":26,"Relation":{"Type_Arabic":"-","Type_English":"-","Metropolitan":"-","District":"-","Province":"-"}}},{"_id":"60d325f20e79895a579357f4","type":"Feature","geometry":{"type":"Point","coordinates":[51.04531303,32.93807347]},"properties":{"placename":"بلاد فارس","hebrewname":"בלאד פארס","englishname":"blad fars","Description":"","count":2,"Relation":{"Type_Arabic":"-","Type_English":"-","Metropolitan":"-","District":"-","Province":"-"}}},{"_id":"60d325f20e79895a579357f6","type":"Feature","geometry":{"type":"Point","coordinates":[48.51456,34.79922]},"properties":{"placename":"همدان","hebrewname":"המדאנ","englishname":"hmdan","Description":"","count":6,"Relation":{"Type_Arabic":"-","Type_English":"-","Metropolitan":"تميم","District":"-","Province":"اليمن"}}},{"_id":"60d325f20e79895a57935811","type":"Feature","geometry":{"type":"Point","coordinates":[39.10816554,-3.47365888]},"properties":{"placename":"الزنج","hebrewname":"אלזנג","englishname":"alznj","Description":"","count":7,"Relation":{"Type_Arabic":"-","Type_English":"-","Metropolitan":"-","District":"-","Province":"-"}}},{"_id":"60d325f20e79895a57935814","type":"Feature","geometry":{"type":"Point","coordinates":[48.54832144,36.67431341]},"properties":{"placename":"طبرستان","hebrewname":"טברסתאנ","englishname":"Tbrstan","Description":"","count":10,"Relation":{"Type_Arabic":"بلاد","Type_English":"caliphate's country","Metropolitan":"يزيد","District":"حدود خراسان","Province":"-"}}},{"_id":"60d325f20e79895a57935817","type":"Feature","geometry":{"type":"Point","coordinates":[47.77465942,30.54611079]},"properties":{"placename":"الأبلة","hebrewname":"אלאבלה","englishname":"alAblah","Description":"","count":5,"Relation":{"Type_Arabic":"بلد","Type_English":"town","Metropolitan":"هوب","District":"-","Province":"-"}}},{"_id":"60d325f20e79895a57935825","type":"Feature","geometry":{"type":"Point","coordinates":[34.46667,31.5]},"properties":{"placename":"غزة","hebrewname":"עזה","englishname":"gzah","Description":"","count":2,"Relation":{"Type_Arabic":"مدينة","Type_English":"city","Metropolitan":"فطرس","District":"فلسطين","Province":"إفريقية"}}},{"_id":"60d325f20e79895a57935836","type":"Feature","geometry":{"type":"Point","coordinates":[14.312331583455672,32.632914301754646]},"properties":{"placename":"لبدة","hebrewname":"לבדה","englishname":"lbdah","Description":"","count":1,"Relation":{"Type_Arabic":"حصن","Type_English":"fort","Metropolitan":"بنيان","District":"-","Province":"-"}}},{"_id":"60d325f20e79895a57935855","type":"Feature","geometry":{"type":"Point","coordinates":[50.8764,34.6401]},"properties":{"placename":"قم","hebrewname":"קמ","englishname":"qm","Description":"","count":16,"Relation":{"Type_Arabic":"مدينة","Type_English":"city","Metropolitan":"-","District":"-","Province":"-"}}},{"_id":"60d325f20e79895a5793585a","type":"Feature","geometry":{"type":"Point","coordinates":[47.59909891,15.90146141]},"properties":{"placename":"اليمن","hebrewname":"אלימנ","englishname":"alymn","Description":"","count":21,"Relation":{"Type_Arabic":"أرض","Type_English":"land","Metropolitan":"بم","District":"صنعاء","Province":"اليمن"}}},{"_id":"60d325f20e79895a57935866","type":"Feature","geometry":{"type":"Point","coordinates":[36.31551,32.56909]},"properties":{"placename":"الجيزة","hebrewname":"אלגיזה","englishname":"aljyzah","Description":"","count":1,"Relation":{"Type_Arabic":"وادي","Type_English":"valley","Metropolitan":"-","District":"-","Province":"مصر"}}},{"_id":"60d325f20e79895a57935883","type":"Feature","geometry":{"type":"Point","coordinates":[67.41315,32.52154]},"properties":{"placename":"شاه","hebrewname":"שאה","englishname":"shah","Description":"","count":13,"Relation":{"Type_Arabic":"-","Type_English":"-","Metropolitan":"-","District":"-","Province":"-"}}},{"_id":"60d325f20e79895a5793589b","type":"Feature","geometry":{"type":"Point","coordinates":[71.52408720618506,30.16277958068952]},"properties":{"placename":"المولتان","hebrewname":"אלמולתאנ","englishname":"almoltan","Description":"","count":1,"Relation":{"Type_Arabic":"-","Type_English":"-","Metropolitan":"-","District":"-","Province":"-"}}},{"_id":"60d325f20e79895a579358b2","type":"Feature","geometry":{"type":"Point","coordinates":[43.94385,15.6594]},"properties":{"placename":"عمران","hebrewname":"עמראנ","englishname":"amran","Description":"","count":8,"Relation":{"Type_Arabic":"موضع","Type_English":"place","Metropolitan":"قصر اللصوص","District":"-","Province":"هذيل"}}},{"_id":"60d325f20e79895a579358d9","type":"Feature","geometry":{"type":"Point","coordinates":[36.13045457,33.99045457]},"properties":{"placename":"البقاع","hebrewname":"אלבקאע","englishname":"albqaa","Description":"","count":1,"Relation":{"Type_Arabic":"قرية","Type_English":"village","Metropolitan":"-","District":"-","Province":"-"}}},{"_id":"60d325f20e79895a579358eb","type":"Feature","geometry":{"type":"Point","coordinates":[49.17416077,30.14241624]},"properties":{"placename":"بونة","hebrewname":"בונה","englishname":"bonah","Description":"","count":1,"Relation":{"Type_Arabic":"وادي","Type_English":"valley","Metropolitan":"-","District":"-","Province":"-"}}},{"_id":"60d325f20e79895a579358f9","type":"Feature","geometry":{"type":"Point","coordinates":[36.15722,36.20655]},"properties":{"placename":" أنطاكية","hebrewname":" אנטאכיה","englishname":" AnTakyah","Description":"","count":2,"Relation":{"Type_Arabic":"-","Type_English":"-","Metropolitan":"-","District":"-","Province":"-"}}},{"_id":"60d325f20e79895a57935914","type":"Feature","geometry":{"type":"Point","coordinates":[55.7500258,29.87173909]},"properties":{"placename":"الفهرج","hebrewname":"אלפהרג","englishname":"alfhrj","Description":"","count":1,"Relation":{"Type_Arabic":"بلدة","Type_English":"town","Metropolitan":"-","District":"-","Province":"فارس"}}},{"_id":"60d325f20e79895a5793591f","type":"Feature","geometry":{"type":"Point","coordinates":[57.43770604,23.83929644]},"properties":{"placename":"السويق","hebrewname":"אלסויק","englishname":"alsoyq","Description":"","count":1,"Relation":{"Type_Arabic":"-","Type_English":"-","Metropolitan":"-","District":"-","Province":"-"}}},{"_id":"60d325f20e79895a5793593c","type":"Feature","geometry":{"type":"Point","coordinates":[36.23256,33.45835]},"properties":{"placename":"داريا","hebrewname":"דאריא","englishname":"darya","Description":"","count":1,"Relation":{"Type_Arabic":"بليدة","Type_English":"small town","Metropolitan":"مزن","District":"دمشق","Province":"-"}}},{"_id":"60d325f20e79895a5793593e","type":"Feature","geometry":{"type":"Point","coordinates":[64.78566,34.15599]},"properties":{"placename":"غور","hebrewname":"עור","englishname":"gor","Description":"","count":9,"Relation":{"Type_Arabic":"بلاد","Type_English":"caliphate's country","Metropolitan":"-","District":"-","Province":"-"}}},{"_id":"60d325f20e79895a5793595a","type":"Feature","geometry":{"type":"Point","coordinates":[38.80076035,37.16793769]},"properties":{"placename":"الرها","hebrewname":"אלרהא","englishname":"alrha","Description":"","count":1,"Relation":{"Type_Arabic":"-","Type_English":"-","Metropolitan":"-","District":"-","Province":"-"}}},{"_id":"60d325f20e79895a5793595e","type":"Feature","geometry":{"type":"Point","coordinates":[-1.242789756,7.996403085]},"properties":{"placename":"غانة","hebrewname":"עאנה","englishname":"ganah","Description":"","count":8,"Relation":{"Type_Arabic":"مدينة","Type_English":"city","Metropolitan":"سودان","District":"-","Province":"المغرب"}}},{"_id":"60d325f20e79895a57935964","type":"Feature","geometry":{"type":"Point","coordinates":[6.07286,31.68041]},"properties":{"placename":"مسعود","hebrewname":"מסעוד","englishname":"msaod","Description":"","count":6,"Relation":{"Type_Arabic":"-","Type_English":"-","Metropolitan":"-","District":"-","Province":"-"}}},{"_id":"60d325f20e79895a57935968","type":"Feature","geometry":{"type":"Point","coordinates":[35.21633,31.76904]},"properties":{"placename":"بيت المقدس","hebrewname":"בית אלמקדס","englishname":"byt almqds","Description":"","count":2,"Relation":{"Type_Arabic":"-","Type_English":"-","Metropolitan":"-","District":"-","Province":"-"}}},{"_id":"60d325f20e79895a5793596d","type":"Feature","geometry":{"type":"Point","coordinates":[35.62509596,36.96168437]},"properties":{"placename":"المصيصة","hebrewname":"אלמציצה","englishname":"almSySah","Description":"","count":5,"Relation":{"Type_Arabic":"قرية","Type_English":"village","Metropolitan":"الشامي","District":"دمشق","Province":"الشام"}}},{"_id":"60d325f20e79895a57935977","type":"Feature","geometry":{"type":"Point","coordinates":[35.65192816,34.12293024]},"properties":{"placename":"جبيل","hebrewname":"גביל","englishname":"jbyl","Description":"","count":1,"Relation":{"Type_Arabic":"بلد","Type_English":"town","Metropolitan":"بيروت","District":"-","Province":"-"}}},{"_id":"60d325f20e79895a57935988","type":"Feature","geometry":{"type":"Point","coordinates":[-5.45051,36.13326]},"properties":{"placename":"الخضراء","hebrewname":"אלחדראא","englishname":"alxDraa","Description":"","count":3,"Relation":{"Type_Arabic":"-","Type_English":"-","Metropolitan":"-","District":"-","Province":"-"}}},{"_id":"60d325f20e79895a5793598e","type":"Feature","geometry":{"type":"Point","coordinates":[36.68030245,35.64960469]},"properties":{"placename":"معرة النعمان","hebrewname":"מערה אלנעמאנ","englishname":"marah alnaman","Description":"","count":1,"Relation":{"Type_Arabic":"مدينة","Type_English":"city","Metropolitan":"العلاة","District":"دمشق","Province":"الشام"}}},{"_id":"60d325f20e79895a57935781","type":"Feature","geometry":{"type":"Point","coordinates":[31.73183664,30.66673531]},"properties":{"placename":"الشرقية","hebrewname":"אלשרקיה","englishname":"alshrqyah","Description":"","count":7,"Relation":{"Type_Arabic":"محلة","Type_English":"suburb","Metropolitan":"الحبابية","District":"بغداد","Province":"مصر"}}},{"_id":"60d325f20e79895a5793579d","type":"Feature","geometry":{"type":"Point","coordinates":[-3.79028,37.76922]},"properties":{"placename":"جيان","hebrewname":"גיאנ","englishname":"jyan","Description":"","count":3,"Relation":{"Type_Arabic":"كورة","Type_English":"town","Metropolitan":"بيرة","District":"-","Province":"-"}}},{"_id":"60d325f20e79895a5793579f","type":"Feature","geometry":{"type":"Point","coordinates":[66.84607737900609,37.3245231080659]},"properties":{"placename":"طخارستان","hebrewname":"טחארסתאנ","englishname":"Txarstan","Description":"","count":10,"Relation":{"Type_Arabic":"ولاية","Type_English":"non-arab province","Metropolitan":"-","District":"بلخ","Province":"خراسان"}}},{"_id":"60d325f20e79895a579357aa","type":"Feature","geometry":{"type":"Point","coordinates":[32.55402,25.29336]},"properties":{"placename":"إسنا","hebrewname":"איסנא","englishname":"Asna","Description":"","count":2,"Relation":{"Type_Arabic":"مدينة","Type_English":"city","Metropolitan":"-","District":"النيل","Province":"-"}}},{"_id":"60d325f20e79895a579357ac","type":"Feature","geometry":{"type":"Point","coordinates":[34.72039722,31.8153]},"properties":{"placename":"يبنا","hebrewname":"יבנא","englishname":"ybna","Description":"","count":2,"Relation":{"Type_Arabic":"-","Type_English":"-","Metropolitan":"-","District":"-","Province":"-"}}},{"_id":"60d325f20e79895a579357c4","type":"Feature","geometry":{"type":"Point","coordinates":[45.71882426,32.66448284]},"properties":{"placename":"واسط","hebrewname":"ואסט","englishname":"oasT","Description":"","count":11,"Relation":{"Type_Arabic":"بلاد","Type_English":"caliphate's country","Metropolitan":"نهر غراف","District":"الأهواز","Province":"الكوفة"}}},{"_id":"60d325f20e79895a57935802","type":"Feature","geometry":{"type":"Point","coordinates":[32.28815767,13.44291963]},"properties":{"placename":"النيل","hebrewname":"אלניל","englishname":"alnyl","Description":"","count":27,"Relation":{"Type_Arabic":"بليدة","Type_English":"small town","Metropolitan":"المقام","District":"الصعيد","Province":"مصر"}}},{"_id":"60d325f20e79895a57935804","type":"Feature","geometry":{"type":"Point","coordinates":[46.72480883,24.60344011]},"properties":{"placename":"العاقول","hebrewname":"אלעאקול","englishname":"alaaqol","Description":"","count":1,"Relation":{"Type_Arabic":"-","Type_English":"-","Metropolitan":"-","District":"-","Province":"-"}}},{"_id":"60d325f20e79895a57935807","type":"Feature","geometry":{"type":"Point","coordinates":[59.96459382,28.96428989]},"properties":{"placename":"سجستان","hebrewname":"סגסתאנ","englishname":"sjstan","Description":"","count":48,"Relation":{"Type_Arabic":"ناحية","Type_English":"district","Metropolitan":"بست","District":"هراة","Province":"كرمان"}}},{"_id":"60d325f20e79895a57935820","type":"Feature","geometry":{"type":"Point","coordinates":[38.95335674,23.42800763]},"properties":{"placename":"الجابية","hebrewname":"אלגאביה","englishname":"aljabyah","Description":"","count":1,"Relation":{"Type_Arabic":"قرية","Type_English":"village","Metropolitan":"الجيدور","District":"دمشق","Province":"الشام"}}},{"_id":"60d325f20e79895a57935833","type":"Feature","geometry":{"type":"Point","coordinates":[40.05604072,15.6665297]},"properties":{"placename":"دهلك","hebrewname":"דהלכ","englishname":"dhlk","Description":"","count":2,"Relation":{"Type_Arabic":"جزيرة","Type_English":"island","Metropolitan":"بحر يمن","District":"-","Province":"-"}}},{"_id":"60d325f20e79895a57935838","type":"Feature","geometry":{"type":"Point","coordinates":[31.29917812826279,30.985350001051152]},"properties":{"placename":"نوسا","hebrewname":"נוסא","englishname":"nosa","Description":"","count":1,"Relation":{"Type_Arabic":"كورة","Type_English":"town","Metropolitan":"-","District":"-","Province":"مصر"}}},{"_id":"60d325f20e79895a5793583c","type":"Feature","geometry":{"type":"Point","coordinates":[36.33076,33.47101]},"properties":{"placename":"باب","hebrewname":"באב","englishname":"bab","Description":"","count":111,"Relation":{"Type_Arabic":"جبل","Type_English":"mountain","Metropolitan":"هجر","District":"البحرين","Province":"-"}}},{"_id":"60d325f20e79895a57935850","type":"Feature","geometry":{"type":"Point","coordinates":[54.42638798,36.84203965]},"properties":{"placename":"جرجان","hebrewname":"גרגאנ","englishname":"jrjan","Description":"","count":10,"Relation":{"Type_Arabic":"مدينة","Type_English":"city","Metropolitan":"نور","District":"الباب","Province":"السهل"}}},{"_id":"60d325f20e79895a57935856","type":"Feature","geometry":{"type":"Point","coordinates":[43.80391103,31.10651164]},"properties":{"placename":"النجف","hebrewname":"אלנגפ","englishname":"alnjf","Description":"","count":2,"Relation":{"Type_Arabic":"عين","Type_English":"spring","Metropolitan":"القطقطانة","District":"-","Province":"السهل"}}},{"_id":"60d325f20e79895a5793588f","type":"Feature","geometry":{"type":"Point","coordinates":[35.41798903689143,33.390399315205016]},