[{"_id":"60d3259d0e79895a5793552d","type":"Feature","geometry":{"type":"Point","coordinates":[56.05285212,20.55560458]},"properties":{"placename":"عمان","hebrewname":"עמאנ","englishname":"aman","Description":"","count":31,"Relation":{"Type_Arabic":"كورة","Type_English":"town","Metropolitan":"أطراف","District":"الشحر","Province":"البصرة"}}},{"_id":"60d3259d0e79895a57935531","type":"Feature","geometry":{"type":"Point","coordinates":[110.2113621,-7.269995277]},"properties":{"placename":"جاوة","hebrewname":"גאוה","englishname":"jaoah","Description":"","count":26,"Relation":{"Type_Arabic":"-","Type_English":"-","Metropolitan":"-","District":"-","Province":"-"}}},{"_id":"60d3259d0e79895a57935526","type":"Feature","geometry":{"type":"Point","coordinates":[10.0982,33.88146]},"properties":{"placename":"قابس","hebrewname":"קאבס","englishname":"qabs","Description":"","count":10,"Relation":{"Type_Arabic":"منازل","Type_English":"abodes","Metropolitan":"حاجة","District":"البادية","Province":"إفريقية"}}},{"_id":"60d3259d0e79895a5793552f","type":"Feature","geometry":{"type":"Point","coordinates":[56.36000762453711,25.060467574278313]},"properties":{"placename":"كلباء","hebrewname":"כלבאא","englishname":"klbaa","Description":"","count":2,"Relation":{"Type_Arabic":"-","Type_English":"-","Metropolitan":"-","District":"-","Province":"-"}}},{"_id":"60d3259d0e79895a57935530","type":"Feature","geometry":{"type":"Point","coordinates":[95.73147573,44.92215157]},"properties":{"placename":"آسيا","hebrewname":"אסיא","englishname":"aasya","Description":"","count":16,"Relation":{"Type_Arabic":"نهر","Type_English":"river","Metropolitan":"ترك","District":"-","Province":"-"}}},{"_id":"60d3259d0e79895a5793555b","type":"Feature","geometry":{"type":"Point","coordinates":[-5.00028,34.03313]},"properties":{"placename":"مملكة فاس","hebrewname":"ממלכה פאס","englishname":"mmlkah fas","Description":"","count":2,"Relation":{"Type_Arabic":"-","Type_English":"-","Metropolitan":"-","District":"-","Province":"-"}}},{"_id":"60d3259d0e79895a57935566","type":"Feature","geometry":{"type":"Point","coordinates":[-0.3763128803491177,27.360301887081075]},"properties":{"placename":"إقليم توات","hebrewname":"איקלימ תואת","englishname":"Aqlym toat","Description":"","count":1,"Relation":{"Type_Arabic":"-","Type_English":"-","Metropolitan":"-","District":"-","Province":"-"}}},{"_id":"60d3259d0e79895a5793556d","type":"Feature","geometry":{"type":"Point","coordinates":[111.15611610585269,59.255077677994066]},"properties":{"placename":"الشرق الأقصى","hebrewname":"אלשרק אלאקצא","englishname":"alshrq alAqSa","Description":"","count":1,"Relation":{"Type_Arabic":"-","Type_English":"-","Metropolitan":"-","District":"-","Province":"-"}}},{"_id":"60d3259d0e79895a5793558e","type":"Feature","geometry":{"type":"Point","coordinates":[48.99889,16.05694]},"properties":{"placename":"تريم","hebrewname":"תרימ","englishname":"trym","Description":"","count":1,"Relation":{"Type_Arabic":"ناحية","Type_English":"district","Metropolitan":"-","District":"-","Province":"-"}}},{"_id":"60d3259d0e79895a579355a7","type":"Feature","geometry":{"type":"Point","coordinates":[2.8868198684373887,37.01972731677012]},"properties":{"placename":"مدينة الجزائر","hebrewname":"מדינה אלגזאאר","englishname":"mdynah aljzaar","Description":"","count":2,"Relation":{"Type_Arabic":"-","Type_English":"-","Metropolitan":"-","District":"-","Province":"-"}}},{"_id":"60d3259d0e79895a579355aa","type":"Feature","geometry":{"type":"Point","coordinates":[-4.1003355092567535,36.78141302623176]},"properties":{"placename":"بلش","hebrewname":"בלש","englishname":"blsh","Description":"","count":6,"Relation":{"Type_Arabic":"بلد","Type_English":"town","Metropolitan":"-","District":"-","Province":"-"}}},{"_id":"60d3259d0e79895a579355c2","type":"Feature","geometry":{"type":"Point","coordinates":[8.83651,35.16758]},"properties":{"placename":"القصرين","hebrewname":"אלקצרינ","englishname":"alqSryn","Description":"","count":1,"Relation":{"Type_Arabic":"-","Type_English":"-","Metropolitan":"-","District":"-","Province":"-"}}},{"_id":"60d3259d0e79895a579355c8","type":"Feature","geometry":{"type":"Point","coordinates":[35.77104272,31.12832137]},"properties":{"placename":"الكرك","hebrewname":"אלכרכ","englishname":"alkrk","Description":"","count":13,"Relation":{"Type_Arabic":"-","Type_English":"-","Metropolitan":"-","District":"-","Province":"-"}}},{"_id":"60d3259d0e79895a579355cc","type":"Feature","geometry":{"type":"Point","coordinates":[31.11534339,27.23214033]},"properties":{"placename":"أسيوط","hebrewname":"אסיוט","englishname":"AsyoT","Description":"","count":4,"Relation":{"Type_Arabic":"مدينة","Type_English":"city","Metropolitan":"-","District":"النيل","Province":"مصر"}}},{"_id":"60d3259d0e79895a579355ce","type":"Feature","geometry":{"type":"Point","coordinates":[32.76443518205285,25.917756362567992]},"properties":{"placename":"قوص","hebrewname":"קוצ","englishname":"qoS","Description":"","count":9,"Relation":{"Type_Arabic":"مدينة","Type_English":"city","Metropolitan":"عدن","District":"الصعيد","Province":"المغرب"}}},{"_id":"60d3259d0e79895a579355d1","type":"Feature","geometry":{"type":"Point","coordinates":[32.54502414853356,25.62035860894312]},"properties":{"placename":"أرمنت","hebrewname":"ארמנת","englishname":"Armnt","Description":"","count":3,"Relation":{"Type_Arabic":"كورة","Type_English":"town","Metropolitan":"-","District":"الصعيد","Province":"-"}}},{"_id":"60d3259d0e79895a579355f3","type":"Feature","geometry":{"type":"Point","coordinates":[36.48506839524338,33.065741597725896]},"properties":{"placename":"بلاد الشام","hebrewname":"בלאד אלשאמ","englishname":"blad alsham","Description":"","count":10,"Relation":{"Type_Arabic":"-","Type_English":"-","Metropolitan":"-","District":"-","Province":"-"}}},{"_id":"60d3259d0e79895a57935601","type":"Feature","geometry":{"type":"Point","coordinates":[45.71882426,32.66448284]},"properties":{"placename":"واسط","hebrewname":"ואסט","englishname":"oasT","Description":"","count":20,"Relation":{"Type_Arabic":"بلاد","Type_English":"caliphate's country","Metropolitan":"نهر غراف","District":"الأهواز","Province":"الكوفة"}}},{"_id":"60d3259d0e79895a57935607","type":"Feature","geometry":{"type":"Point","coordinates":[44.81012,16.06145]},"properties":{"placename":"الروضة","hebrewname":"אלרודה","englishname":"alroDah","Description":"","count":16,"Relation":{"Type_Arabic":"-","Type_English":"-","Metropolitan":"-","District":"-","Province":"-"}}},{"_id":"60d3259d0e79895a57935611","type":"Feature","geometry":{"type":"Point","coordinates":[37.29440343,27.38262207]},"properties":{"placename":"تبوك","hebrewname":"תבוכ","englishname":"tbok","Description":"","count":7,"Relation":{"Type_Arabic":"طريق","Type_English":"road","Metropolitan":"الحجر","District":"-","Province":"الشام"}}},{"_id":"60d3259d0e79895a5793561f","type":"Feature","geometry":{"type":"Point","coordinates":[39.825722676470825,21.40838885207957]},"properties":{"placename":"حراء","hebrewname":"חראא","englishname":"Hraa","Description":"","count":58,"Relation":{"Type_Arabic":"جبل","Type_English":"mountain","Metropolitan":"جبال عرفات","District":"-","Province":"-"}}},{"_id":"60d3259d0e79895a57935636","type":"Feature","geometry":{"type":"Point","coordinates":[54.3675,31.89722]},"properties":{"placename":"يزد","hebrewname":"יזד","englishname":"yzd","Description":"","count":21,"Relation":{"Type_Arabic":"ناحية","Type_English":"district","Metropolitan":"إصطخر","District":"نيسابور","Province":"فارس"}}},{"_id":"60d3259d0e79895a57935639","type":"Feature","geometry":{"type":"Point","coordinates":[44.403090395768,33.317005519953746]},"properties":{"placename":"الكرخ","hebrewname":"אלכרח","englishname":"alkrx","Description":"","count":3,"Relation":{"Type_Arabic":"كرخ","Type_English":"metropolitan area","Metropolitan":"بقر","District":"-","Province":"العراق"}}},{"_id":"60d3259d0e79895a57935643","type":"Feature","geometry":{"type":"Point","coordinates":[37.00472,35.59011]},"properties":{"placename":"سنجار","hebrewname":"סנגאר","englishname":"snjar","Description":"","count":7,"Relation":{"Type_Arabic":"مدينة","Type_English":"city","Metropolitan":"جبل جودي","District":"الحجاز","Province":"الشام"}}},{"_id":"60d3259d0e79895a5793564b","type":"Feature","geometry":{"type":"Point","coordinates":[44.40469386,15.32935876]},"properties":{"placename":"صنعاء","hebrewname":"צנעאא","englishname":"Snaaa","Description":"","count":6,"Relation":{"Type_Arabic":"بلد","Type_English":"town","Metropolitan":"جبل نقم","District":"مكة","Province":"اليمن"}}},{"_id":"60d3259d0e79895a5793567e","type":"Feature","geometry":{"type":"Point","coordinates":[61.1577,36.5449]},"properties":{"placename":"سرخس","hebrewname":"סרחס","englishname":"srxs","Description":"","count":5,"Relation":{"Type_Arabic":"مدينة","Type_English":"city","Metropolitan":"الواعظ","District":"هراة","Province":"خراسان"}}},{"_id":"60d3259d0e79895a579356b7","type":"Feature","geometry":{"type":"Point","coordinates":[103.8310775,36.56380228]},"properties":{"placename":"صين الصين","hebrewname":"צינ אלצינ","englishname":"Syn alSyn","Description":"","count":3,"Relation":{"Type_Arabic":"-","Type_English":"-","Metropolitan":"-","District":"-","Province":"-"}}},{"_id":"60d3259d0e79895a579356ba","type":"Feature","geometry":{"type":"Point","coordinates":[35.15788,31.98722]},"properties":{"placename":"كوبر","hebrewname":"כובר","englishname":"kobr","Description":"","count":1,"Relation":{"Type_Arabic":"-","Type_English":"-","Metropolitan":"-","District":"-","Province":"-"}}},{"_id":"60d3259d0e79895a579356da","type":"Feature","geometry":{"type":"Point","coordinates":[42.82768,33.63664]},"properties":{"placename":"هيت ","hebrewname":"הית ","englishname":"hyt ","Description":"","count":3,"Relation":{"Type_Arabic":"-","Type_English":"-","Metropolitan":"-","District":"-","Province":"-"}}},{"_id":"60d3259d0e79895a579356e9","type":"Feature","geometry":{"type":"Point","coordinates":[36.21806,34.00583]},"properties":{"placename":" بعلبك","hebrewname":" בעלבכ","englishname":" balbk","Description":"","count":4,"Relation":{"Type_Arabic":"-","Type_English":"-","Metropolitan":"-","District":"-","Province":"-"}}},{"_id":"60d3259d0e79895a579356f5","type":"Feature","geometry":{"type":"Point","coordinates":[69.20730699270825,34.55225587894023]},"properties":{"placename":" كابل","hebrewname":" כאבל","englishname":" kabl","Description":"","count":1,"Relation":{"Type_Arabic":"-","Type_English":"-","Metropolitan":"-","District":"-","Province":"-"}}},{"_id":"60d3259d0e79895a579356fb","type":"Feature","geometry":{"type":"Point","coordinates":[36.0355423672053,32.88816114856953]},"properties":{"placename":" الجابية","hebrewname":" אלגאביה","englishname":" aljabyah","Description":"","count":3,"Relation":{"Type_Arabic":"-","Type_English":"-","Metropolitan":"-","District":"-","Province":"-"}}},{"_id":"60d3259d0e79895a5793570a","type":"Feature","geometry":{"type":"Point","coordinates":[50.86444,32.32556]},"properties":{"placename":"كرد","hebrewname":"כרד","englishname":"krd","Description":"","count":9,"Relation":{"Type_Arabic":"قبيلة","Type_English":"tribe","Metropolitan":"البيضاء","District":"-","Province":"-"}}},{"_id":"60d3259d0e79895a57935719","type":"Feature","geometry":{"type":"Point","coordinates":[35.97603,36.08012]},"properties":{"placename":"السويدية","hebrewname":"אלסוידיה","englishname":"alsoydyah","Description":"","count":1,"Relation":{"Type_Arabic":"-","Type_English":"-","Metropolitan":"-","District":"-","Province":"-"}}},{"_id":"60d3259d0e79895a5793571b","type":"Feature","geometry":{"type":"Point","coordinates":[35.77104272,31.12832137]},"properties":{"placename":"كرك","hebrewname":"כרכ","englishname":"krk","Description":"","count":16,"Relation":{"Type_Arabic":"قرية","Type_English":"village","Metropolitan":"جبل لبنان","District":"-","Province":"الشام"}}},{"_id":"60d3259d0e79895a57935726","type":"Feature","geometry":{"type":"Point","coordinates":[35.49632,32.49728]},"properties":{"placename":"بيسان","hebrewname":"ביסאנ","englishname":"bysan","Description":"","count":1,"Relation":{"Type_Arabic":"عين","Type_English":"spring","Metropolitan":"الأردن","District":"-","Province":"-"}}},{"_id":"60d3259d0e79895a57935728","type":"Feature","geometry":{"type":"Point","coordinates":[51.40405836691442,35.71020830066921]},"properties":{"placename":"بهراة","hebrewname":"בהראה","englishname":"bhraah","Description":"","count":1,"Relation":{"Type_Arabic":"-","Type_English":"-","Metropolitan":"-","District":"-","Province":"-"}}},{"_id":"60d3259d0e79895a57935730","type":"Feature","geometry":{"type":"Point","coordinates":[35.45661130558442,31.885910730114606]},"properties":{"placename":"أريحا","hebrewname":"אריחא","englishname":"AryHa","Description":"","count":1,"Relation":{"Type_Arabic":"مدينة","Type_English":"city","Metropolitan":"الغور","District":"-","Province":"الشام"}}},{"_id":"60d3259d0e79895a57935735","type":"Feature","geometry":{"type":"Point","coordinates":[30.55385442,29.33135345]},"properties":{"placename":"الفيوم","hebrewname":"אלפיומ","englishname":"alfyom","Description":"","count":6,"Relation":{"Type_Arabic":"ناحية","Type_English":"district","Metropolitan":"هيت","District":"الفيوم","Province":"مصر"}}},{"_id":"60d3259d0e79895a57935737","type":"Feature","geometry":{"type":"Point","coordinates":[35.07647,32.92814]},"properties":{"placename":"عكا","hebrewname":"עכא","englishname":"aka","Description":"","count":9,"Relation":{"Type_Arabic":"موضع","Type_English":"place","Metropolitan":"حطين","District":"-","Province":"الشام"}}},{"_id":"60d3259d0e79895a5793573a","type":"Feature","geometry":{"type":"Point","coordinates":[48.09472,29.14583]},"properties":{"placename":"الرقة","hebrewname":"אלרקה","englishname":"alrqah","Description":"","count":1,"Relation":{"Type_Arabic":"مدينة","Type_English":"city","Metropolitan":"حران","District":"بغداد","Province":"-"}}},{"_id":"60d3259d0e79895a5793574c","type":"Feature","geometry":{"type":"Point","coordinates":[39.77419,-5.13125]},"properties":{"placename":"الزنج","hebrewname":"אלזנג","englishname":"alznj","Description":"","count":13,"Relation":{"Type_Arabic":"-","Type_English":"-","Metropolitan":"-","District":"-","Province":"-"}}},{"_id":"60d3259d0e79895a5793574f","type":"Feature","geometry":{"type":"Point","coordinates":[-1.242789755546222,7.996403085396747]},"properties":{"placename":"غانة","hebrewname":"עאנה","englishname":"ganah","Description":"","count":1,"Relation":{"Type_Arabic":"مدينة","Type_English":"city","Metropolitan":"سودان","District":"-","Province":"المغرب"}}},{"_id":"60d3259d0e79895a5793576e","type":"Feature","geometry":{"type":"Point","coordinates":[-5.5539518,7.626106171]},"properties":{"placename":"العاج","hebrewname":"אלעאג","englishname":"alaaj","Description":"","count":4,"Relation":{"Type_Arabic":"-","Type_English":"-","Metropolitan":"-","District":"-","Province":"-"}}},{"_id":"60d3259d0e79895a57935544","type":"Feature","geometry":{"type":"Point","coordinates":[31.29572304198502,29.93108287085508]},"properties":{"placename":"طرة","hebrewname":"טרה","englishname":"Trah","Description":"","count":27,"Relation":{"Type_Arabic":"مدينة","Type_English":"city","Metropolitan":"-","District":"-","Province":"إفريقية"}}},{"_id":"60d3259d0e79895a57935554","type":"Feature","geometry":{"type":"Point","coordinates":[36.299372644523274,33.54924072726581]},"properties":{"placename":"مرج الصفار","hebrewname":"מרג אלצפאר","englishname":"mrj alSfar","Description":"","count":2,"Relation":{"Type_Arabic":"-","Type_English":"-","Metropolitan":"-","District":"-","Province":"-"}}},{"_id":"60d3259d0e79895a5793555e","type":"Feature","geometry":{"type":"Point","coordinates":[-5.324019105645864,35.89329671436435]},"properties":{"placename":"تامسنا","hebrewname":"תאמסנא","englishname":"tamsna","Description":"","count":9,"Relation":{"Type_Arabic":"-","Type_English":"-","Metropolitan":"-","District":"-","Province":"-"}}},{"_id":"60d3259d0e79895a57935574","type":"Feature","geometry":{"type":"Point","coordinates":[32.87447,39.69484]},"properties":{"placename":"آسيا الوسطى","hebrewname":"אסיא אלוסטא","englishname":"aasya alosTa","Description":"","count":2,"Relation":{"Type_Arabic":"-","Type_English":"-","Metropolitan":"-","District":"-","Province":"-"}}},{"_id":"60d3259d0e79895a5793557a","type":"Feature","geometry":{"type":"Point","coordinates":[35.725907009218375,34.132612694138516]},"properties":{"placename":"لبنان","hebrewname":"לבנאנ","englishname":"lbnan","Description":"","count":7,"Relation":{"Type_Arabic":"جبل","Type_English":"mountain","Metropolitan":"العرج","District":"حمص","Province":"الشام"}}},{"_id":"60d3259d0e79895a57935580","type":"Feature","geometry":{"type":"Point","coordinates":[36.31551,32.56909]},"properties":{"placename":"الجيزة","hebrewname":"אלגיזה","englishname":"aljyzah","Description":"","count":2,"Relation":{"Type_Arabic":"وادي","Type_English":"valley","Metropolitan":"-","District":"-","Province":"مصر"}}},{"_id":"60d3259d0e79895a57935581","type":"Feature","geometry":{"type":"Point","coordinates":[36.48256,32.52013]},"properties":{"placename":"بصرى الشام","hebrewname":"בצרא אלשאמ","englishname":"bSra alsham","Description":"","count":1,"Relation":{"Type_Arabic":"-","Type_English":"-","Metropolitan":"-","District":"-","Province":"-"}}},{"_id":"60d3259d0e79895a57935588","type":"Feature","geometry":{"type":"Point","coordinates":[52.33683,27.670345]},"properties":{"placename":"سيراف","hebrewname":"סיראפ","englishname":"syraf","Description":"","count":4,"Relation":{"Type_Arabic":"ماء","Type_English":"water","Metropolitan":"بحر فارس","District":"-","Province":"فارس"}}},{"_id":"60d3259d0e79895a5793559a","type":"Feature","geometry":{"type":"Point","coordinates":[-5.45051,36.13326]},"properties":{"placename":"الخضراء","hebrewname":"אלחדראא","englishname":"alxDraa","Description":"","count":6,"Relation":{"Type_Arabic":"-","Type_English":"-","Metropolitan":"-","District":"-","Province":"-"}}},{"_id":"60d3259d0e79895a5793559d","type":"Feature","geometry":{"type":"Point","coordinates":[43.07764941949286,25.870838888504643]},"properties":{"placename":"نبهان","hebrewname":"נבהאנ","englishname":"nbhan","Description":"","count":3,"Relation":{"Type_Arabic":"جبل","Type_English":"mountain","Metropolitan":"-","District":"-","Province":"-"}}},{"_id":"60d3259d0e79895a579355b9","type":"Feature","geometry":{"type":"Point","coordinates":[30.935494261763676,30.46439036333577]},"properties":{"placename":"منوف","hebrewname":"מנופ","englishname":"mnof","Description":"","count":3,"Relation":{"Type_Arabic":"قرية","Type_English":"village","Metropolitan":"-","District":"-","Province":"مصر"}}},{"_id":"60d3259d0e79895a579355bf","type":"Feature","geometry":{"type":"Point","coordinates":[30.988700831241726,30.31273544423484]},"properties":{"placename":"أشمون","hebrewname":"אשמונ","englishname":"Ashmon","Description":"","count":3,"Relation":{"Type_Arabic":"مدينة","Type_English":"city","Metropolitan":"منف","District":"الصعيد","Province":"-"}}},{"_id":"60d3259d0e79895a579355d3","type":"Feature","geometry":{"type":"Point","coordinates":[32.51675880471995,25.293459261421006]},"properties":{"placename":"أسنا","hebrewname":"אסנא","englishname":"Asna","Description":"","count":6,"Relation":{"Type_Arabic":"-","Type_English":"-","Metropolitan":"-","District":"-","Province":"-"}}},{"_id":"60d3259d0e79895a579355e3","type":"Feature","geometry":{"type":"Point","coordinates":[35.92017779729028,31.957195525240795]},"properties":{"placename":"الربض","hebrewname":"אלרבד","englishname":"alrbD","Description":"","count":1,"Relation":{"Type_Arabic":"مدينة","Type_English":"city","Metropolitan":"-","District":"-","Province":"-"}}},{"_id":"60d3259d0e79895a579355e6","type":"Feature","geometry":{"type":"Point","coordinates":[35.53124,32.79221]},"properties":{"placename":"طبرية","hebrewname":"טבריה","englishname":"Tbryah","Description":"","count":2,"Relation":{"Type_Arabic":"بليدة","Type_English":"small town","Metropolitan":"عكا","District":"دمشق","Province":"المغرب"}}},{"_id":"60d3259d0e79895a579355ef","type":"Feature","geometry":{"type":"Point","coordinates":[36.2648700008639,33.55235502048646]},"properties":{"placename":"الفيحاء","hebrewname":"אלפיחאא","englishname":"alfyHaa","Description":"","count":2,"Relation":{"Type_Arabic":"-","Type_English":"-","Metropolitan":"-","District":"-","Province":"-"}}},{"_id":"60d3259d0e79895a579355f0","type":"Feature","geometry":{"type":"Point","coordinates":[36.64990624101287,35.124964270115996]},"properties":{"placename":"تيزين","hebrewname":"תיזינ","englishname":"tyzyn","Description":"","count":2,"Relation":{"Type_Arabic":"قرية","Type_English":"village","Metropolitan":"قنسرين","District":"حلب","Province":"-"}}},{"_id":"60d3259d0e79895a579355f6","type":"Feature","geometry":{"type":"Point","coordinates":[36.3406,35.0653]},"properties":{"placename":"مصياف","hebrewname":"מציאפ","englishname":"mSyaf","Description":"","count":1,"Relation":{"Type_Arabic":"-","Type_English":"-","Metropolitan":"-","District":"-","Province":"-"}}},{"_id":"60d3259d0e79895a579355ff","type":"Feature","geometry":{"type":"Point","coordinates":[36.107882193407995,34.43276800168738]},"properties":{"placename":"جيرون","hebrewname":"גירונ","englishname":"jyron","Description":"","count":4,"Relation":{"Type_Arabic":"مدينة","Type_English":"city","Metropolitan":"الحوض","District":"دمشق","Province":"-"}}},{"_id":"60d3259d0e79895a5793560d","type":"Feature","geometry":{"type":"Point","coordinates":[35.00337914695285,29.55684216940532]},"properties":{"placename":"العقبة","hebrewname":"אלעקבה אלכרכ","englishname":"alaqbah alkrk","Description":"","count":1,"Relation":{"Type_Arabic":"-","Type_English":"-","Metropolitan":"-","District":"-","Province":"-"}}},{"_id":"60d3259d0e79895a57935612","type":"Feature","geometry":{"type":"Point","coordinates":[32.26816598,29.65720973]},"properties":{"placename":"السويس","hebrewname":"אלסויס","englishname":"alsoys","Description":"","count":1,"Relation":{"Type_Arabic":"-","Type_English":"-","Metropolitan":"-","District":"-","Province":"-"}}},{"_id":"60d3259d0e79895a57935618","type":"Feature","geometry":{"type":"Point","coordinates":[39.34096545780391,22.150117773662576]},"properties":{"placename":"خليص","hebrewname":"חליצ","englishname":"xlyS","Description":"","count":6,"Relation":{"Type_Arabic":"حصن","Type_English":"fort","Metropolitan":"-","District":"-","Province":"-"}}},{"_id":"60d3259d0e79895a5793561e","type":"Feature","geometry":{"type":"Point","coordinates":[39.8262,21.42249]},"properties":{"placename":"الصفا","hebrewname":"אלצפא","englishname":"alSfa","Description":"","count":35,"Relation":{"Type_Arabic":"طريق","Type_English":"road","Metropolitan":"تميم","District":"البحرين","Province":"-"}}},{"_id":"60d3259d0e79895a57935647","type":"Feature","geometry":{"type":"Point","coordinates":[43.47438616619933,11.354210536263745]},"properties":{"placename":"زيلع","hebrewname":"זילע","englishname":"zyla","Description":"","count":8,"Relation":{"Type_Arabic":"جيل","Type_English":"descent","Metropolitan":"سودان","District":"-","Province":"-"}}},{"_id":"60d3259d0e79895a57935648","type":"Feature","geometry":{"type":"Point","coordinates":[49.98547276171448,26.58550319368505]},"properties":{"placename":"القطيف","hebrewname":"אלקטיפ","englishname":"alqTyf","Description":"","count":5,"Relation":{"Type_Arabic":"مدينة","Type_English":"city","Metropolitan":"العلاء","District":"البحرين","Province":"-"}}},{"_id":"60d3259d0e79895a57935657","type":"Feature","geometry":{"type":"Point","coordinates":[47.83333,16.13333]},"properties":{"placename":"هجر","hebrewname":"הגר","englishname":"hjr","Description":"","count":13,"Relation":{"Type_Arabic":"موضع","Type_English":"place","Metropolitan":"الأشعر","District":"البحرين","Province":"المغرب"}}},{"_id":"60d3259d0e79895a5793565a","type":"Feature","geometry":{"type":"Point","coordinates":[32.55402,25.29336]},"properties":{"placename":"إسنا","hebrewname":"איסנא","englishname":"Asna","Description":"","count":4,"Relation":{"Type_Arabic":"مدينة","Type_English":"city","Metropolitan":"-","District":"النيل","Province":"-"}}},{"_id":"60d3259d0e79895a57935662","type":"Feature","geometry":{"type":"Point","coordinates":[27.780787589088256,37.311195380261864]},"properties":{"placename":"ميلاس","hebrewname":"מילאס","englishname":"mylas","Description":"","count":6,"Relation":{"Type_Arabic":"-","Type_English":"-","Metropolitan":"-","District":"-","Province":"-"}}},{"_id":"60d3259d0e79895a5793566b","type":"Feature","geometry":{"type":"Point","coordinates":[33.787825713127326,41.41733498139655]},"properties":{"placename":"قصطمونية","hebrewname":"קצטמוניה","englishname":"qSTmonyah","Description":"","count":6,"Relation":{"Type_Arabic":"-","Type_English":"-","Metropolitan":"-","District":"-","Province":"-"}}},{"_id":"60d3259d0e79895a57935675","type":"Feature","geometry":{"type":"Point","coordinates":[43.89317329736102,26.33140919244973]},"properties":{"placename":"بريدا","hebrewname":"ברידא","englishname":"bryda","Description":"","count":1,"Relation":{"Type_Arabic":"-","Type_English":"-","Metropolitan":"-","District":"-","Province":"-"}}},{"_id":"60d3259d0e79895a579356ae","type":"Feature","geometry":{"type":"Point","coordinates":[79.85843640068488,6.926779240030979]},"properties":{"placename":"كلنبو","hebrewname":"כלנבו","englishname":"klnbo","Description":"","count":1,"Relation":{"Type_Arabic":"-","Type_English":"-","Metropolitan":"-","District":"-","Province":"-"}}},{"_id":"60d3259d0e79895a579356c2","type":"Feature","geometry":{"type":"Point","coordinates":[9.116991,39.218721]},"properties":{"placename":"كالياري","hebrewname":"כאליארי","englishname":"kalyary","Description":"","count":1,"Relation":{"Type_Arabic":"-","Type_English":"-","Metropolitan":"-","District":"-","Province":"-"}}},{"_id":"60d3259d0e79895a579356e7","type":"Feature","geometry":{"type":"Point","coordinates":[59.52889,22.56667]},"properties":{"placename":" صور","hebrewname":" צור","englishname":" Sor","Description":"","count":62,"Relation":{"Type_Arabic":"-","Type_English":"-","Metropolitan":"-","District":"-","Province":"-"}}},{"_id":"60d3259d0e79895a579356f6","type":"Feature","geometry":{"type":"Point","coordinates":[35.23333333,31.78333333]},"properties":{"placename":" قدس","hebrewname":" קדס","englishname":" qds","Description":"","count":4,"Relation":{"Type_Arabic":"-","Type_English":"-","Metropolitan":"-","District":"-","Province":"-"}}},{"_id":"60d3259d0e79895a57935704","type":"Feature","geometry":{"type":"Point","coordinates":[51.336364666462934,29.565243113866234]},"properties":{"placename":"خشت","hebrewname":"חשת","englishname":"xsht","Description":"","count":2,"Relation":{"Type_Arabic":"-","Type_English":"-","Metropolitan":"-","District":"-","Province":"-"}}},{"_id":"60d3259d0e79895a5793570b","type":"Feature","geometry":{"type":"Point","coordinates":[48.6842,31.31901]},"properties":{"placename":"سابور","hebrewname":"סאבור","englishname":"sabor","Description":"","count":11,"Relation":{"Type_Arabic":"كورة","Type_English":"town","Metropolitan":"توج","District":"البحرين","Province":"فارس"}}},{"_id":"60d3259d0e79895a57935717","type":"Feature","geometry":{"type":"Point","coordinates":[62.18030342,37.66844146]},"properties":{"placename":"مرو","hebrewname":"מרו","englishname":"mro","Description":"","count":61,"Relation":{"Type_Arabic":"-","Type_English":"-","Metropolitan":"صفر","District":"الحجاز","Province":"الكوفة"}}},{"_id":"60d3259d0e79895a57935725","type":"Feature","geometry":{"type":"Point","coordinates":[44.57238954,13.17058867]},"properties":{"placename":"لحج","hebrewname":"לחג","englishname":"lHj","Description":"","count":273,"Relation":{"Type_Arabic":"موضع","Type_English":"place","Metropolitan":"حمير","District":"-","Province":"اليمن"}}},{"_id":"60d3259d0e79895a57935738","type":"Feature","geometry":{"type":"Point","coordinates":[35.24227,31.71749]},"properties":{"placename":"النعمان","hebrewname":"אלנעמאנ","englishname":"alnaman","Description":"","count":6,"Relation":{"Type_Arabic":"-","Type_English":"-","Metropolitan":"-","District":"-","Province":"-"}}},{"_id":"60d3259d0e79895a57935739","type":"Feature","geometry":{"type":"Point","coordinates":[60.63598377360784,25.36968646223289]},"properties":{"placename":"مكران","hebrewname":"מכראנ","englishname":"mkran","Description":"","count":2,"Relation":{"Type_Arabic":"ولاية","Type_English":"non-arab province","Metropolitan":"بحر فارس","District":"بابل","Province":"سجستان"}}},{"_id":"60d3259d0e79895a5793574d","type":"Feature","geometry":{"type":"Point","coordinates":[54.10400757657777,17.213608384726]},"properties":{"placename":"جمح","hebrewname":"גמח","englishname":"jmH","Description":"","count":3,"Relation":{"Type_Arabic":"-","Type_English":"-","Metropolitan":"-","District":"-","Province":"-"}}},{"_id":"60d3259d0e79895a57935753","type":"Feature","geometry":{"type":"Point","coordinates":[28.89129435,41.15442919]},"properties":{"placename":"قسطنطينية","hebrewname":"קסטנטיניה","englishname":"qsTnTynyah","Description":"","count":35,"Relation":{"Type_Arabic":"مدينة","Type_English":"city","Metropolitan":"سائر","District":"-","Province":"-"}}},{"_id":"60d3259d0e79895a5793576d","type":"Feature","geometry":{"type":"Point","coordinates":[113.57661,22.75337]},"properties":{"placename":"بحر الصين","hebrewname":"בחר אלצינ","englishname":"bHr alSyn","Description":"","count":1,"Relation":{"Type_Arabic":"-","Type_English":"-","Metropolitan":"-","District":"-","Province":"-"}}},{"_id":"60d3259d0e79895a5793553c","type":"Feature","geometry":{"type":"Point","coordinates":[68.76780824,26.02647424]},"properties":{"placename":"السند","hebrewname":"אלסנד","englishname":"alsnd","Description":"","count":87,"Relation":{"Type_Arabic":"بلاد","Type_English":"caliphate's country","Metropolitan":"قاسم","District":"-","Province":"-"}}},{"_id":"60d3259d0e79895a5793553d","type":"Feature","geometry":{"type":"Point","coordinates":[-0.37056954790067903,34.80221016357751]},"properties":{"placename":"مرين","hebrewname":"מרינ","englishname":"mryn","Description":"","count":17,"Relation":{"Type_Arabic":"قرية","Type_English":"village","Metropolitan":"مرو","District":"-","Province":"-"}}},{"_id":"60d3259d0e79895a57935548","type":"Feature","geometry":{"type":"Point","coordinates":[36,33]},"properties":{"placename":"دمشق","hebrewname":"דמשק","englishname":"dmshq","Description":"","count":180,"Relation":{"Type_Arabic":"مدينة","Type_English":"city","Metropolitan":"شهد","District":"دمشق","Province":"مصر"}}},{"_id":"60d3259d0e79895a5793554a","type":"Feature","geometry":{"type":"Point","coordinates":[-7.99994,31.63416]},"properties":{"placename":"مراكش","hebrewname":"מראכש","englishname":"mraksh","Description":"","count":19,"Relation":{"Type_Arabic":"مدينة","Type_English":"city","Metropolitan":"أغمات","District":"-","Province":"المغرب"}}},{"_id":"60d3259d0e79895a57935570","type":"Feature","geometry":{"type":"Point","coordinates":[12.33265,45.43713]},"properties":{"placename":"البندقية","hebrewname":"אלבנדקיה","englishname":"albndqyah","Description":"","count":1,"Relation":{"Type_Arabic":"-","Type_English":"-","Metropolitan":"-","District":"-","Province":"-"}}},{"_id":"60d3259d0e79895a57935587","type":"Feature","geometry":{"type":"Point","coordinates":[26.304341146483335,40.06612792054189]},"properties":{"placename":"الدردنيل","hebrewname":"אלדרדניל","englishname":"aldrdnyl","Description":"","count":1,"Relation":{"Type_Arabic":"-","Type_English":"-","Metropolitan":"-","District":"-","Province":"-"}}},{"_id":"60d3259d0e79895a57935595","type":"Feature","geometry":{"type":"Point","coordinates":[62.19967,34.34817]},"properties":{"placename":"هراة","hebrewname":"הראה","englishname":"hraah","Description":"","count":10,"Relation":{"Type_Arabic":"مدينة","Type_English":"city","Metropolitan":"عامر","District":"سرخس","Province":"الصين"}}},{"_id":"60d3259d0e79895a579355a2","type":"Feature","geometry":{"type":"Point","coordinates":[11.06222,35.50472]},"properties":{"placename":"المهدية","hebrewname":"אלמהדיה","englishname":"almhdyah","Description":"","count":1,"Relation":{"Type_Arabic":"-","Type_English":"-","Metropolitan":"-","District":"-","Province":"إفريقية"}}},{"_id":"60d3259d0e79895a579355a5","type":"Feature","geometry":{"type":"Point","coordinates":[5.08433,36.75587]},"properties":{"placename":"بجاية","hebrewname":"בגאיה","englishname":"bjayah","Description":"","count":7,"Relation":{"Type_Arabic":"مدينة","Type_English":"city","Metropolitan":"بحر المغرب","District":"-","Province":"إفريقية"}}},{"_id":"60d3259d0e79895a579355ca","type":"Feature","geometry":{"type":"Point","coordinates":[30.657512569560023,28.53394051075567]},"properties":{"placename":"البهنسة","hebrewname":"אלבהנסה","englishname":"albhnsah","Description":"","count":2,"Relation":{"Type_Arabic":"-","Type_English":"-","Metropolitan":"-","District":"-","Province":"-"}}},{"_id":"60d3259d0e79895a579355cb","type":"Feature","geometry":{"type":"Point","coordinates":[30.97195633025979,27.312386589245186]},"properties":{"placename":"منفلوط","hebrewname":"מנפלוט","englishname":"mnfloT","Description":"","count":4,"Relation":{"Type_Arabic":"بلدة","Type_English":"town","Metropolitan":"-","District":"الصعيد","Province":"-"}}},{"_id":"60d3259d0e79895a579355cf","type":"Feature","geometry":{"type":"Point","coordinates":[46.87292,14.33011]},"properties":{"placename":"الصعيد","hebrewname":"אלצעיד","englishname":"alSayd","Description":"","count":10,"Relation":{"Type_Arabic":"أرض","Type_English":"land","Metropolitan":"البهنسا","District":"النيل","Province":"مصر"}}},{"_id":"60d3259d0e79895a579355e4","type":"Feature","geometry":{"type":"Point","coordinates":[59.52889,22.56667]},"properties":{"placename":"صور","hebrewname":"צור","englishname":"Sor","Description":"","count":196,"Relation":{"Type_Arabic":"مدينة","Type_English":"city","Metropolitan":"بحر شام","District":"سكنها","Province":"-"}}},{"_id":"60d3259d0e79895a57935603","type":"Feature","geometry":{"type":"Point","coordinates":[36.285926688135255,33.54641033815553]},"properties":{"placename":"قاسيون","hebrewname":"קאסיונ","englishname":"qasyon","Description":"","count":5,"Relation":{"Type_Arabic":"جبل","Type_English":"mountain","Metropolitan":"-","District":"دمشق","Province":"-"}}},{"_id":"60d3259d0e79895a57935626","type":"Feature","geometry":{"type":"Point","coordinates":[44.44017,32.05114]},"properties":{"placename":"الكوفة","hebrewname":"אלכופה","englishname":"alkofah","Description":"","count":20,"Relation":{"Type_Arabic":"أرض","Type_English":"land","Metropolitan":"الجيش","District":"الفرات","Province":"البصرة"}}},{"_id":"60d3259d0e79895a57935634","type":"Feature","geometry":{"type":"Point","coordinates":[-7.601809605419531,33.57406393907593]},"properties":{"placename":"المشور","hebrewname":"אלמשור","englishname":"almshor","Description":"","count":57,"Relation":{"Type_Arabic":"-","Type_English":"-","Metropolitan":"-","District":"-","Province":"-"}}},{"_id":"60d3259d0e79895a5793564d","type":"Feature","geometry":{"type":"Point","coordinates":[44.02091,13.57952]},"properties":{"placename":"تعز","hebrewname":"תעז","englishname":"taz","Description":"","count":7,"Relation":{"Type_Arabic":"قلعة","Type_English":"castle","Metropolitan":"جبل صبر","District":"-","Province":"اليمن"}}},{"_id":"60d3259d0e79895a57935669","type":"Feature","geometry":{"type":"Point","coordinates":[29.72847488904478,40.43099588496572]},"properties":{"placename":"يزنيك","hebrewname":"יזניכ","englishname":"yznyk","Description":"","count":5,"Relation":{"Type_Arabic":"-","Type_English":"-","Metropolitan":"-","District":"-","Province":"-"}}},{"_id":"60d3259d0e79895a57935673","type":"Feature","geometry":{"type":"Point","coordinates":[68.3466981432286,42.908879541361166]},"properties":{"placename":"أطرار","hebrewname":"אטראר","englishname":"ATrar","Description":"","count":5,"Relation":{"Type_Arabic":"مدينة","Type_English":"city","Metropolitan":"نهر سيحون","District":"-","Province":"-"}}},{"_id":"60d3259d0e79895a57935695","type":"Feature","geometry":{"type":"Point","coordinates":[78.88416790142833,26.52783474937933]},"properties":{"placename":"الدويقير","hebrewname":"אלדויקיר","englishname":"aldoyqyr","Description":"","count":5,"Relation":{"Type_Arabic":"-","Type_English":"-","Metropolitan":"-","District":"-","Province":"-"}}},{"_id":"60d3259d0e79895a579356a2","type":"Feature","geometry":{"type":"Point","coordinates":[74.25436746341971,21.374789110684357]},"properties":{"placename":"نذربار","hebrewname":"נדרבאר","englishname":"nVrbar","Description":"","count":2,"Relation":{"Type_Arabic":"-","Type_English":"-","Metropolitan":"-","District":"-","Province":"-"}}},{"_id":"60d3259d0e79895a579356af","type":"Feature","geometry":{"type":"Point","coordinates":[78.52419397528553,26.55025646974828]},"properties":{"placename":"سدكاوان","hebrewname":"סדכאואנ","englishname":"sdkaoan","Description":"","count":7,"Relation":{"Type_Arabic":"-","Type_English":"-","Metropolitan":"-","District":"-","Province":"-"}}},{"_id":"60d3259d0e79895a579356c6","type":"Feature","geometry":{"type":"Point","coordinates":[46.38811,14.20567]},"properties":{"placename":"شالة الرباط","hebrewname":"שאלה אלרבאט","englishname":"shalah alrbaT","Description":"","count":1,"Relation":{"Type_Arabic":"-","Type_English":"-","Metropolitan":"-","District":"-","Province":"-"}}},{"_id":"60d3259d0e79895a579356d0","type":"Feature","geometry":{"type":"Point","coordinates":[68.23801,32.68567]},"properties":{"placename":"آمد","hebrewname":"אמד","englishname":"aamd","Description":"","count":1,"Relation":{"Type_Arabic":"بلد","Type_English":"town","Metropolitan":"حمل","District":"-","Province":"-"}}},{"_id":"60d3259d0e79895a579356ed","type":"Feature","geometry":{"type":"Point","coordinates":[35.73405,30.19624]},"properties":{"placename":" معان","hebrewname":" מעאנ","englishname":" maan","Description":"","count":4,"Relation":{"Type_Arabic":"-","Type_English":"-","Metropolitan":"-","District":"-","Province":"-"}}},{"_id":"60d3259d0e79895a579356ef","type":"Feature","geometry":{"type":"Point","coordinates":[37.15662939,35.22523197]},"properties":{"placename":" حماة","hebrewname":" חמאה","englishname":" Hmaah","Description":"","count":8,"Relation":{"Type_Arabic":"-","Type_English":"-","Metropolitan":"-","District":"-","Province":"-"}}},{"_id":"60d3259d0e79895a579356ff","type":"Feature","geometry":{"type":"Point","coordinates":[53.6482,28.9383]},"properties":{"placename":"فسا","hebrewname":"פסא","englishname":"fsa","Description":"","count":47,"Relation":{"Type_Arabic":"مدينة","Type_English":"city","Metropolitan":"دارابجرد","District":"-","Province":"-"}}},{"_id":"60d3259d0e79895a57935710","type":"Feature","geometry":{"type":"Point","coordinates":[31.17858,30.45906]},"properties":{"placename":"بنها","hebrewname":"בנהא","englishname":"bnha","Description":"","count":7,"Relation":{"Type_Arabic":"قرية","Type_English":"village","Metropolitan":"شعبة","District":"النيل","Province":"مصر"}}},{"_id":"60d3259d0e79895a57935712","type":"Feature","geometry":{"type":"Point","coordinates":[47.53113714,40.28705839]},"properties":{"placename":"أذربيجان","hebrewname":"אדרביגאנ","englishname":"AVrbyjan","Description":"","count":1,"Relation":{"Type_Arabic":"إقليم","Type_English":"islamic longitude","Metropolitan":"شهرزور","District":"-","Province":"أرمن"}}},{"_id":"60d3259d0e79895a57935731","type":"Feature","geometry":{"type":"Point","coordinates":[36.13045457,33.99045457]},"properties":{"placename":"البقاع","hebrewname":"אלבקאע","englishname":"albqaa","Description":"","count":3,"Relation":{"Type_Arabic":"قرية","Type_English":"village","Metropolitan":"-","District":"-","Province":"-"}}},{"_id":"60d3259d0e79895a57935734","type":"Feature","geometry":{"type":"Point","coordinates":[36.1005,33.72488]},"properties":{"placename":"الزبداني","hebrewname":"אלזבדאני","englishname":"alzbdany","Description":"","count":1,"Relation":{"Type_Arabic":"كورة","Type_English":"town","Metropolitan":"-","District":"-","Province":"-"}}},{"_id":"60d3259d0e79895a57935766","type":"Feature","geometry":{"type":"Point","coordinates":[54.30402579,32.56323656]},"properties":{"placename":"ايران","hebrewname":"איראנ","englishname":"ayran","Description":"","count":1,"Relation":{"Type_Arabic":"-","Type_English":"-","Metropolitan":"-","District":"-","Province":"-"}}},{"_id":"60d3259d0e79895a5793576a","type":"Feature","geometry":{"type":"Point","coordinates":[-4.42034,36.72016]},"properties":{"placename":"ملقا","hebrewname":"מלקא","englishname":"mlqa","Description":"","count":1,"Relation":{"Type_Arabic":"-","Type_English":"-","Metropolitan":"-","District":"-","Province":"-"}}},{"_id":"60d3259d0e79895a57935545","type":"Feature","geometry":{"type":"Point","coordinates":[-3.639066965,40.22822936]},"properties":{"placename":"إسبانيا","hebrewname":"איסבאניא","englishname":"Asbanya","Description":"","count":2,"Relation":{"Type_Arabic":"-","Type_English":"-","Metropolitan":"-","District":"-","Province":"-"}}},{"_id":"60d3259d0e79895a57935546","type":"Feature","geometry":{"type":"Point","coordinates":[31.517787170739425,30.58017088294696]},"properties":{"placename":"الحسنية","hebrewname":"אלחסניה","englishname":"alHsnyah","Description":"","count":10,"Relation":{"Type_Arabic":"بلد","Type_English":"town","Metropolitan":"-","District":"-","Province":"-"}}},{"_id":"60d3259d0e79895a57935549","type":"Feature","geometry":{"type":"Point","coordinates":[-5.574627751758875,34.80867061764027]},"properties":{"placename":"وزان","hebrewname":"וזאנ","englishname":"ozan","Description":"","count":9,"Relation":{"Type_Arabic":"-","Type_English":"-","Metropolitan":"-","District":"-","Province":"-"}}},{"_id":"60d3259d0e79895a5793554b","type":"Feature","geometry":{"type":"Point","coordinates":[-5.54727,33.89352]},"properties":{"placename":"مكناس","hebrewname":"מכנאס","englishname":"mknas","Description":"","count":8,"Relation":{"Type_Arabic":"-","Type_English":"-","Metropolitan":"-","District":"-","Province":"-"}}},{"_id":"60d3259d0e79895a57935578","type":"Feature","geometry":{"type":"Point","coordinates":[54.49079533,18.57585269]},"properties":{"placename":"ظفار","hebrewname":"זפאר","englishname":"Zfar","Description":"","count":22,"Relation":{"Type_Arabic":"مدينة","Type_English":"city","Metropolitan":"وقف","District":"بحر الهند","Province":"اليمن"}}},{"_id":"60d3259d0e79895a57935594","type":"Feature","geometry":{"type":"Point","coordinates":[28.94966,41.01384]},"properties":{"placename":"القسطنطينية","hebrewname":"אלקסטנטיניה","englishname":"alqsTnTynyah","Description":"","count":30,"Relation":{"Type_Arabic":"-","Type_English":"-","Metropolitan":"-","District":"-","Province":"-"}}},{"_id":"60d3259d0e79895a579355a1","type":"Feature","geometry":{"type":"Point","coordinates":[54.30402579,32.56323656]},"properties":{"placename":"إيران","hebrewname":"אייראנ","englishname":"Ayran","Description":"","count":1,"Relation":{"Type_Arabic":"-","Type_English":"-","Metropolitan":"-","District":"-","Province":"-"}}},{"_id":"60d3259d0e79895a579355b4","type":"Feature","geometry":{"type":"Point","coordinates":[36.61619172544123,22.233336840134193]},"properties":{"placename":"عيذاب","hebrewname":"עידאב","englishname":"ayVab","Description":"","count":11,"Relation":{"Type_Arabic":"بليدة","Type_English":"small town","Metropolitan":"بحر القلزم","District":"-","Province":"-"}}},{"_id":"60d3259d0e79895a579355ba","type":"Feature","geometry":{"type":"Point","coordinates":[31.1669,30.97063]},"properties":{"placename":"المحلة","hebrewname":"אלמחלה","englishname":"almHlah","Description":"","count":41,"Relation":{"Type_Arabic":"مدينة","Type_English":"city","Metropolitan":"-","District":"-","Province":"-"}}},{"_id":"60d3259d0e79895a579355c7","type":"Feature","geometry":{"type":"Point","coordinates":[34.878537056267426,31.17193291242152]},"properties":{"placename":"النقب","hebrewname":"אלנקב","englishname":"alnqb","Description":"","count":26,"Relation":{"Type_Arabic":"-","Type_English":"-","Metropolitan":"-","District":"-","Province":"-"}}},{"_id":"60d3259d0e79895a579355fd","type":"Feature","geometry":{"type":"Point","coordinates":[35.41870027995373,38.666086112833874]},"properties":{"placename":"الروم","hebrewname":"אלרומ","englishname":"alrom","Description":"","count":111,"Relation":{"Type_Arabic":"بلد","Type_English":"town","Metropolitan":"بنت","District":"الباب","Province":"اليمن"}}},{"_id":"60d3259d0e79895a5793560a","type":"Feature","geometry":{"type":"Point","coordinates":[35.82998878022009,33.27932977292095]},"properties":{"placename":"حوران","hebrewname":"חוראנ","englishname":"Horan","Description":"","count":5,"Relation":{"Type_Arabic":"كور","Type_English":"district","Metropolitan":"الغور","District":"دمشق","Province":"الشام"}}},{"_id":"60d3259d0e79895a5793560c","type":"Feature","geometry":{"type":"Point","coordinates":[35.181133120623024,32.579675882618474]},"properties":{"placename":"اللجون","hebrewname":"אללגונ","englishname":"alljon","Description":"","count":1,"Relation":{"Type_Arabic":"بلد","Type_English":"town","Metropolitan":"الأردن","District":"-","Province":"-"}}},{"_id":"60d3259d0e79895a5793562e","type":"Feature","geometry":{"type":"Point","coordinates":[47.77874668575929,30.525007459047284]},"properties":{"placename":"مدينة البصرة","hebrewname":"מדינה אלבצרה","englishname":"mdynah albSrah","Description":"","count":6,"Relation":{"Type_Arabic":"-","Type_English":"-","Metropolitan":"-","District":"-","Province":"-"}}},{"_id":"60d3259d0e79895a5793563c","type":"Feature","geometry":{"type":"Point","coordinates":[59.96459381863893,28.964289891537028]},"properties":{"placename":"سجستان","hebrewname":"סגסתאנ","englishname":"sjstan","Description":"","count":3,"Relation":{"Type_Arabic":"ناحية","Type_English":"district","Metropolitan":"بست","District":"هراة","Province":"كرمان"}}},{"_id":"60d3259d0e79895a57935650","type":"Feature","geometry":{"type":"Point","coordinates":[39.1640900795189,-2.356437635320786]},"properties":{"placename":"منبسى","hebrewname":"מנבסא","englishname":"mnbsa","Description":"","count":1,"Relation":{"Type_Arabic":"-","Type_English":"-","Metropolitan":"-","District":"-","Province":"-"}}},{"_id":"60d3259d0e79895a57935659","type":"Feature","geometry":{"type":"Point","coordinates":[34.92059649431761,32.510148600625705]},"properties":{"placename":"قيسارية","hebrewname":"קיסאריה","englishname":"qysaryah","Description":"","count":7,"Relation":{"Type_Arabic":"قرى","Type_English":"villages","Metropolitan":"بحر شام","District":"فلسطين","Province":"الشام"}}},{"_id":"60d3259d0e79895a5793565b","type":"Feature","geometry":{"type":"Point","coordinates":[30.80336821,27.7812515]},"properties":{"placename":"الأشمونين","hebrewname":"אלאשמונינ","englishname":"alAshmonyn","Description":"","count":1,"Relation":{"Type_Arabic":"-","Type_English":"-","Metropolitan":"-","District":"-","Province":"-"}}},{"_id":"60d3259d0e79895a5793569b","type":"Feature","geometry":{"type":"Point","coordinates":[36.07888,33.43757]},"properties":{"placename":"قطنا","hebrewname":"קטנא","englishname":"qTna","Description":"","count":1,"Relation":{"Type_Arabic":"قرية","Type_English":"village","Metropolitan":"-","District":"دمشق","Province":"-"}}},{"_id":"60d3259d0e79895a579356a6","type":"Feature","geometry":{"type":"Point","coordinates":[6.33852138263463,36.51523774856046]},"properties":{"placename":"قوقة","hebrewname":"קוקה","englishname":"qoqah","Description":"","count":1,"Relation":{"Type_Arabic":"-","Type_English":"-","Metropolitan":"-","District":"-","Province":"-"}}},{"_id":"60d3259d0e79895a579356a7","type":"Feature","geometry":{"type":"Point","coordinates":[36.18316,33.07186]},"properties":{"placename":"الصنمين","hebrewname":"אלצנמינ","englishname":"alSnmyn","Description":"","count":2,"Relation":{"Type_Arabic":"-","Type_English":"-","Metropolitan":"-","District":"-","Province":"-"}}},{"_id":"60d3259d0e79895a579356a8","type":"Feature","geometry":{"type":"Point","coordinates":[87.62556829826134,21.657974934906992]},"properties":{"placename":"فندرينا","hebrewname":"פנדרינא","englishname":"fndryna","Description":"","count":4,"Relation":{"Type_Arabic":"-","Type_English":"-","Metropolitan":"-","District":"-","Province":"-"}}},{"_id":"60d3259d0e79895a579356aa","type":"Feature","geometry":{"type":"Point","coordinates":[79.10207749014583,26.409474820066578]},"properties":{"placename":"هلدمتي","hebrewname":"הלדמתי","englishname":"hldmty","Description":"","count":1,"Relation":{"Type_Arabic":"-","Type_English":"-","Metropolitan":"-","District":"-","Province":"-"}}},{"_id":"60d3259d0e79895a579356bb","type":"Feature","geometry":{"type":"Point","coordinates":[58.7094347,23.23485188]},"properties":{"placename":"مسقط","hebrewname":"מסקט","englishname":"msqT","Description":"","count":3,"Relation":{"Type_Arabic":"واد","Type_English":"valley","Metropolitan":"بني سعد","District":"-","Province":"البصرة"}}},{"_id":"60d3259d0e79895a579356bf","type":"Feature","geometry":{"type":"Point","coordinates":[38.28402,34.5624]},"properties":{"placename":"تدمر","hebrewname":"תדמר","englishname":"tdmr","Description":"","count":2,"Relation":{"Type_Arabic":"مدينة","Type_English":"city","Metropolitan":"جبل أصم","District":"زمان","Province":"الشام"}}},{"_id":"60d3259d0e79895a579356dc","type":"Feature","geometry":{"type":"Point","coordinates":[2.7569672403282923,35.88936292596288]},"properties":{"placename":"أشير","hebrewname":"אשיר","englishname":"Ashyr","Description":"","count":1,"Relation":{"Type_Arabic":"مدينة","Type_English":"city","Metropolitan":"جبال بربر","District":"-","Province":"المغرب"}}},{"_id":"60d3259d0e79895a579356e0","type":"Feature","geometry":{"type":"Point","coordinates":[36.10082250122521,32.625595811708]},"properties":{"placename":"درعة","hebrewname":"דרעה","englishname":"draah","Description":"","count":4,"Relation":{"Type_Arabic":"مدينة","Type_English":"city","Metropolitan":"-","District":"-","Province":"المغرب"}}},{"_id":"60d3259d0e79895a57935701","type":"Feature","geometry":{"type":"Point","coordinates":[50.22934198542041,36.1327622473742]},"properties":{"placename":"هزار","hebrewname":"הזאר","englishname":"hzar","Description":"","count":11,"Relation":{"Type_Arabic":"-","Type_English":"-","Metropolitan":"-","District":"-","Province":"-"}}},{"_id":"60d3259d0e79895a57935708","type":"Feature","geometry":{"type":"Point","coordinates":[29.904133,31.195371]},"properties":{"placename":"قير","hebrewname":"קיר","englishname":"qyr","Description":"","count":75,"Relation":{"Type_Arabic":"-","Type_English":"-","Metropolitan":"-","District":"-","Province":"-"}}},{"_id":"60d3259d0e79895a5793570d","type":"Feature","geometry":{"type":"Point","coordinates":[51.59555190720447,31.062050749421523]},"properties":{"placename":"كمه","hebrewname":"כמה","englishname":"kmh","Description":"","count":19,"Relation":{"Type_Arabic":"-","Type_English":"-","Metropolitan":"-","District":"-","Province":"-"}}},{"_id":"60d3259d0e79895a5793570e","type":"Feature","geometry":{"type":"Point","coordinates":[44.580717,33.093582]},"properties":{"placename":"المدائن","hebrewname":"אלמדאאנ","englishname":"almdaan","Description":"","count":1,"Relation":{"Type_Arabic":"قريتين","Type_English":"neighboring villages","Metropolitan":"الساباط","District":"حلب","Province":"الكوفة"}}},{"_id":"60d3259d0e79895a5793570f","type":"Feature","geometry":{"type":"Point","coordinates":[53.93126011751853,32.79138456344915]},"properties":{"placename":"سياه","hebrewname":"סיאה","englishname":"syah","Description":"","count":3,"Relation":{"Type_Arabic":"-","Type_English":"-","Metropolitan":"-","District":"-","Province":"-"}}},{"_id":"60d3259d0e79895a57935713","type":"Feature","geometry":{"type":"Point","coordinates":[61.4469,32.14237]},"properties":{"placename":"قلعه","hebrewname":"קלעה","englishname":"qlah","Description":"","count":2,"Relation":{"Type_Arabic":"-","Type_English":"-","Metropolitan":"-","District":"-","Province":"-"}}},{"_id":"60d3259d0e79895a5793571d","type":"Feature","geometry":{"type":"Point","coordinates":[21.06765387,31.9759951]},"properties":{"placename":"المرج","hebrewname":"אלמרג","englishname":"almrj","Description":"","count":3,"Relation":{"Type_Arabic":"-","Type_English":"-","Metropolitan":"-","District":"-","Province":"-"}}},{"_id":"60d3259d0e79895a57935736","type":"Feature","geometry":{"type":"Point","coordinates":[47.6725,36.7444]},"properties":{"placename":"ماه","hebrewname":"מאה","englishname":"mah","Description":"","count":33,"Relation":{"Type_Arabic":"-","Type_English":"-","Metropolitan":"-","District":"-","Province":"-"}}},{"_id":"60d3259d0e79895a5793573e","type":"Feature","geometry":{"type":"Point","coordinates":[22.97947876,39.04697922]},"properties":{"placename":"يونان","hebrewname":"יונאנ","englishname":"yonan","Description":"","count":2,"Relation":{"Type_Arabic":"موضع","Type_English":"place","Metropolitan":"الخل","District":"-","Province":"-"}}},{"_id":"60d3259d0e79895a57935747","type":"Feature","geometry":{"type":"Point","coordinates":[43.53849,17.760701]},"properties":{"placename":"فيد","hebrewname":"פיד","englishname":"fyd","Description":"","count":44,"Relation":{"Type_Arabic":"منزل","Type_English":"small abodes","Metropolitan":"-","District":"مكة","Province":"الشام"}}},{"_id":"60d3259d0e79895a57935754","type":"Feature","geometry":{"type":"Point","coordinates":[35.47895,30.32096]},"properties":{"placename":"موسى","hebrewname":"מוסא","englishname":"mosa","Description":"","count":37,"Relation":{"Type_Arabic":"-","Type_English":"-","Metropolitan":"دومة","District":"-","Province":"-"}}},{"_id":"60d3259d0e79895a57935547","type":"Feature","geometry":{"type":"Point","coordinates":[46.25726,31.05799]},"properties":{"placename":"الناصرية","hebrewname":"אלנאצריה","englishname":"alnaSryah","Description":"","count":4,"Relation":{"Type_Arabic":"قرية","Type_English":"village","Metropolitan":"سفاقس","District":"-","Province":"إفريقية"}}},{"_id":"60d3259d0e79895a57935555","type":"Feature","geometry":{"type":"Point","coordinates":[43.96833,13.39028]},"properties":{"placename":"نجد","hebrewname":"נגד","englishname":"njd","Description":"","count":48,"Relation":{"Type_Arabic":"لغة","Type_English":"language","Metropolitan":"عجب","District":"مهرة","Province":"غطفان"}}},{"_id":"60d3259d0e79895a5793555f","type":"Feature","geometry":{"type":"Point","coordinates":[-7.622013760781246,33.57283987927419]},"properties":{"placename":"أنفا","hebrewname":"אנפא","englishname":"Anfa","Description":"","count":30,"Relation":{"Type_Arabic":"-","Type_English":"-","Metropolitan":"-","District":"-","Province":"-"}}},{"_id":"60d3259d0e79895a57935561","type":"Feature","geometry":{"type":"Point","coordinates":[-2.47278,42.35837]},"properties":{"placename":"البيضاء","hebrewname":"אלבידאא","englishname":"albyDaa","Description":"","count":6,"Relation":{"Type_Arabic":"مدينة","Type_English":"city","Metropolitan":"إصطخر","District":"بغداد","Province":"-"}}},{"_id":"60d3259d0e79895a57935565","type":"Feature","geometry":{"type":"Point","coordinates":[51.0453130299943,32.93807347452311]},"properties":{"placename":"بلاد فارس","hebrewname":"בלאד פארס","englishname":"blad fars","Description":"","count":8,"Relation":{"Type_Arabic":"-","Type_English":"-","Metropolitan":"-","District":"-","Province":"-"}}},{"_id":"60d3259d0e79895a5793556f","type":"Feature","geometry":{"type":"Point","coordinates":[80.4996885601772,6.81049502249434]},"properties":{"placename":"سرنديب","hebrewname":"סרנדיב","englishname":"srndyb","Description":"","count":10,"Relation":{"Type_Arabic":"جزيرة","Type_English":"island","Metropolitan":"بحر هركند","District":"بحر الهند","Province":"-"}}},{"_id":"60d3259d0e79895a57935571","type":"Feature","geometry":{"type":"Point","coordinates":[-4.42034,36.72016]},"properties":{"placename":"مالقة","hebrewname":"מאלקה","englishname":"malqah","Description":"","count":11,"Relation":{"Type_Arabic":"مدينة","Type_English":"city","Metropolitan":"بحر مجاز","District":"-","Province":"-"}}},{"_id":"60d3259d0e79895a57935577","type":"Feature","geometry":{"type":"Point","coordinates":[46.2919,38.08]},"properties":{"placename":"تبريز","hebrewname":"תבריז","englishname":"tbryz","Description":"","count":27,"Relation":{"Type_Arabic":"مدينة","Type_English":"city","Metropolitan":"-","District":"-","Province":"أذربيجان"}}},{"_id":"60d3259d0e79895a57935583","type":"Feature","geometry":{"type":"Point","coordinates":[66.02500002,33.83339681]},"properties":{"placename":"أفغانستان","hebrewname":"אפעאנסתאנ","englishname":"Afganstan","Description":"","count":1,"Relation":{"Type_Arabic":"-","Type_English":"-","Metropolitan":"-","District":"-","Province":"-"}}},{"_id":"60d3259d0e79895a57935586","type":"Feature","geometry":{"type":"Point","coordinates":[120.65134860980822,24.490346683356826]},"properties":{"placename":"مضيق فرموزة","hebrewname":" מדיק פרמוזה","englishname":"madeeq frmozah","Description":"","count":1,"Relation":{"Type_Arabic":"-","Type_English":"-","Metropolitan":"-","District":"-","Province":"-"}}},{"_id":"60d3259d0e79895a579355a8","type":"Feature","geometry":{"type":"Point","coordinates":[6.634408363782561,36.36528981668866]},"properties":{"placename":"قسنطينة","hebrewname":"קסנטינה","englishname":"qsnTynah","Description":"","count":1,"Relation":{"Type_Arabic":"-","Type_English":"-","Metropolitan":"-","District":"-","Province":"-"}}},{"_id":"60d3259d0e79895a579355b5","type":"Feature","geometry":{"type":"Point","coordinates":[39.19797,21.54238]},"properties":{"placename":"جدة","hebrewname":"גדה","englishname":"jdah","Description":"","count":29,"Relation":{"Type_Arabic":"-","Type_English":"-","Metropolitan":"ود","District":"-","Province":"-"}}},{"_id":"60d3259d0e79895a579355c1","type":"Feature","geometry":{"type":"Point","coordinates":[32.55197506,23.23416876]},"properties":{"placename":"أسوان","hebrewname":"אסואנ","englishname":"Asoan","Description":"","count":1,"Relation":{"Type_Arabic":"مدينة","Type_English":"city","Metropolitan":"تمر","District":"الحجاز","Province":"العراق"}}},{"_id":"60d3259d0e79895a579355d4","type":"Feature","geometry":{"type":"Point","coordinates":[32.86644471232308,24.981402315578727]},"properties":{"placename":"أدفوا","hebrewname":"אדפוא","englishname":"Adfoa","Description":"","count":1,"Relation":{"Type_Arabic":"-","Type_English":"-","Metropolitan":"-","District":"-","Province":"-"}}},{"_id":"60d3259d0e79895a579355d6","type":"Feature","geometry":{"type":"Point","coordinates":[32.00544905431338,30.746912504888474]},"properties":{"placename":"الصالحية","hebrewname":"אלצאלחיה","englishname":"alSalHyah","Description":"","count":5,"Relation":{"Type_Arabic":"قرية","Type_English":"village","Metropolitan":"رها","District":"-","Province":"-"}}},{"_id":"60d3259d0e79895a579355e0","type":"Feature","geometry":{"type":"Point","coordinates":[35.25444,32.22111]},"properties":{"placename":"نابلس","hebrewname":"נאבלס","englishname":"nabls","Description":"","count":3,"Relation":{"Type_Arabic":"مدينة","Type_English":"city","Metropolitan":"مني","District":"فلسطين","Province":"-"}}},{"_id":"60d3259d0e79895a579355e8","type":"Feature","geometry":{"type":"Point","coordinates":[38.29824515,34.33814673]},"properties":{"placename":"حمص","hebrewname":"חמצ","englishname":"HmS","Description":"","count":18,"Relation":{"Type_Arabic":"طريق","Type_English":"road","Metropolitan":"قبلة","District":"-","Province":"الشام"}}},{"_id":"60d3259d0e79895a57935609","type":"Feature","geometry":{"type":"Point","coordinates":[39.8262,21.42249]},"properties":{"placename":"مكة المكرمة","hebrewname":"מכה אלמכרמה מכה","englishname":"mkah almkrmah mkah","Description":"","count":1,"Relation":{"Type_Arabic":"-","Type_English":"-","Metropolitan":"-","District":"-","Province":"-"}}},{"_id":"60d3259d0e79895a57935610","type":"Feature","geometry":{"type":"Point","coordinates":[35.00778,29.52667]},"properties":{"placename":"عقبة","hebrewname":"עקבה","englishname":"aqbah","Description":"","count":10,"Relation":{"Type_Arabic":"جبل","Type_English":"mountain","Metropolitan":"منى","District":"مكة","Province":"-"}}},{"_id":"60d3259d0e79895a57935620","type":"Feature","geometry":{"type":"Point","coordinates":[53.91980636952352,12.481581907052648]},"properties":{"placename":"سقطرة","hebrewname":"סקטרה","englishname":"sqTrah","Description":"","count":1,"Relation":{"Type_Arabic":"-","Type_English":"-","Metropolitan":"-","District":"-","Province":"-"}}},{"_id":"60d3259d0e79895a5793562c","type":"Feature","geometry":{"type":"Point","coordinates":[68.22710717428008,27.15208650346763]},"properties":{"placename":"بلاد السند","hebrewname":"בלאד אלסנד","englishname":"blad alsnd","Description":"","count":24,"Relation":{"Type_Arabic":"-","Type_English":"-","Metropolitan":"-","District":"-","Province":"-"}}},{"_id":"60d3259d0e79895a57935652","type":"Feature","geometry":{"type":"Point","coordinates":[37.34282,31.33176]},"properties":{"placename":"القريات","hebrewname":"אלקריאת","englishname":"alqryat","Description":"","count":2,"Relation":{"Type_Arabic":"قرية","Type_English":"village","Metropolitan":"-","District":"-","Province":"-"}}},{"_id":"60d3259d0e79895a57935663","type":"Feature","geometry":{"type":"Point","coordinates":[20.25205,31.66818]},"properties":{"placename":"سلوق","hebrewname":"סלוק","englishname":"sloq","Description":"","count":6,"Relation":{"Type_Arabic":"مدينة","Type_English":"city","Metropolitan":"-","District":"-","Province":"اليمن"}}},{"_id":"60d3259d0e79895a57935692","type":"Feature","geometry":{"type":"Point","coordinates":[45.01432,10.43959]},"properties":{"placename":"بربرة","hebrewname":"ברברה","englishname":"brbrah","Description":"","count":4,"Relation":{"Type_Arabic":"واد","Type_English":"valley","Metropolitan":"عدن","District":"-","Province":"-"}}},{"_id":"60d3259d0e79895a57935696","type":"Feature","geometry":{"type":"Point","coordinates":[56.22594751,59.11565699]},"properties":{"placename":"كراي","hebrewname":"כראי","englishname":"kray","Description":"","count":2,"Relation":{"Type_Arabic":"-","Type_English":"-","Metropolitan":"-","District":"-","Province":"-"}}},{"_id":"60d3259d0e79895a5793569d","type":"Feature","geometry":{"type":"Point","coordinates":[58.23957514087271,34.16423049460449]},"properties":{"placename":"برون","hebrewname":"ברונ","englishname":"bron","Description":"","count":23,"Relation":{"Type_Arabic":"-","Type_English":"-","Metropolitan":"-","District":"-","Province":"-"}}},{"_id":"60d3259d0e79895a579356bd","type":"Feature","geometry":{"type":"Point","coordinates":[55.7946841182081,20.477488477385016]},"properties":{"placename":"بلاد عمان","hebrewname":"בלאד עמאנ","englishname":"blad aman","Description":"","count":3,"Relation":{"Type_Arabic":"-","Type_English":"-","Metropolitan":"-","District":"-","Province":"-"}}},{"_id":"60d3259d0e79895a579356c4","type":"Feature","geometry":{"type":"Point","coordinates":[36.0043148,31.8786659]},"properties":{"placename":"سحاب","hebrewname":"סחאב","englishname":"sHab","Description":"","count":5,"Relation":{"Type_Arabic":"-","Type_English":"-","Metropolitan":"-","District":"-","Province":"-"}}},{"_id":"60d3259d0e79895a579356d1","type":"Feature","geometry":{"type":"Point","coordinates":[40.58488693004311,36.030427965302884]},"properties":{"placename":"حصن مسلمة","hebrewname":"חצנ מסלמה ","englishname":"HSn mslmah ","Description":"","count":1,"Relation":{"Type_Arabic":"ما","Type_English":"water","Metropolitan":"الرقة","District":"-","Province":"-"}}},{"_id":"60d3259d0e79895a579356d4","type":"Feature","geometry":{"type":"Point","coordinates":[48.09472,29.14583]},"properties":{"placename":"الرقة ","hebrewname":"אלרקה ","englishname":"alrqah ","Description":"","count":1,"Relation":{"Type_Arabic":"-","Type_English":"-","Metropolitan":"-","District":"-","Province":"-"}}},{"_id":"60d3259d0e79895a579356df","type":"Feature","geometry":{"type":"Point","coordinates":[-9.510772874552046,30.360888622833567]},"properties":{"placename":"سوس","hebrewname":"סוס","englishname":"sos","Description":"","count":4,"Relation":{"Type_Arabic":"-","Type_English":"-","Metropolitan":"-","District":"-","Province":"-"}}},{"_id":"60d3259d0e79895a57935700","type":"Feature","geometry":{"type":"Point","coordinates":[69.36881,33.69056]},"properties":{"placename":"كرم","hebrewname":"כרמ","englishname":"krm","Description":"","count":176,"Relation":{"Type_Arabic":"موضع","Type_English":"place","Metropolitan":"-","District":"-","Province":"-"}}},{"_id":"60d3259d0e79895a57935749","type":"Feature","geometry":{"type":"Point","coordinates":[8.12417,35.40417]},"properties":{"placename":"تبسة","hebrewname":"תבסה","englishname":"tbsah","Description":"","count":1,"Relation":{"Type_Arabic":"بلد","Type_English":"town","Metropolitan":"-","District":"-","Province":"إفريقية"}}},{"_id":"60d3259d0e79895a57935757","type":"Feature","geometry":{"type":"Point","coordinates":[44.13263,36.20067]},"properties":{"placename":"ستي","hebrewname":"סתי","englishname":"sty","Description":"","count":45,"Relation":{"Type_Arabic":"-","Type_English":"-","Metropolitan":"-","District":"-","Province":"-"}}},{"_id":"60d3259d0e79895a57935761","type":"Feature","geometry":{"type":"Point","coordinates":[35.04952,31.4502]},"properties":{"placename":"عمرة","hebrewname":"עמרה","englishname":"amrah","Description":"","count":12,"Relation":{"Type_Arabic":"-","Type_English":"-","Metropolitan":"-","District":"-","Province":"-"}}},{"_id":"60d3259d0e79895a57935762","type":"Feature","geometry":{"type":"Point","coordinates":[35.65192816065809,34.122930235692074]},"properties":{"placename":"جبيل","hebrewname":"גביל","englishname":"jbyl","Description":"","count":8,"Relation":{"Type_Arabic":"بلد","Type_English":"town","Metropolitan":"بيروت","District":"-","Province":"-"}}},{"_id":"60d3259d0e79895a5793552b","type":"Feature","geometry":{"type":"Point","coordinates":[50.5487711,26.05131104]},"properties":{"placename":"البحرين","hebrewname":"אלבחרינ","englishname":"albHryn","Description":"","count":19,"Relation":{"Type_Arabic":"جامع","Type_English":"mosque","Metropolitan":"هجر","District":"البحرين","Province":"الكوفة"}}},{"_id":"60d3259d0e79895a57935541","type":"Feature","geometry":{"type":"Point","coordinates":[13.41659145,32.67120674]},"properties":{"placename":"طرابلس","hebrewname":"טראבלס","englishname":"Trabls","Description":"","count":21,"Relation":{"Type_Arabic":"كورة","Type_English":"town","Metropolitan":"الكنيسة","District":"برقة","Province":"-"}}},{"_id":"60d3259d0e79895a57935534","type":"Feature","geometry":{"type":"Point","coordinates":[-10.93379686,10.43447893]},"properties":{"placename":"غينيا","hebrewname":"עיניא","englishname":"gynya","Description":"","count":1,"Relation":{"Type_Arabic":"-","Type_English":"-","Metropolitan":"-","District":"-","Province":"-"}}},{"_id":"60d3259d0e79895a5793553e","type":"Feature","geometry":{"type":"Point","coordinates":[52.53113,29.61031]},"properties":{"placename":"شيراز","hebrewname":"שיראז","englishname":"shyraz","Description":"","count":72,"Relation":{"Type_Arabic":"قصبة","Type_English":"kasbah (city center)","Metropolitan":"حارة","District":"-","Province":"فارس"}}},{"_id":"60d3259d0e79895a5793557b","type":"Feature","geometry":{"type":"Point","coordinates":[49.29233058,16.6122021]},"properties":{"placename":"حضرموت","hebrewname":"חדרמות","englishname":"HDrmot","Description":"","count":2,"Relation":{"Type_Arabic":"موضع","Type_English":"place","Metropolitan":"الذراع","District":"-","Province":"مصر"}}},{"_id":"60d3259d0e79895a57935582","type":"Feature","geometry":{"type":"Point","coordinates":[35.66813649,31.97563763]},"properties":{"placename":"البلقاء","hebrewname":"אלבלקאא","englishname":"alblqaa","Description":"","count":1,"Relation":{"Type_Arabic":"كورة","Type_English":"town","Metropolitan":"الإسكندرية","District":"دمشق","Province":"الشام"}}},{"_id":"60d3259d0e79895a5793559e","type":"Feature","geometry":{"type":"Point","coordinates":[39.897107242952956,21.546853941704526]},"properties":{"placename":"الديار المقدسة","hebrewname":"אלדיאר אלמקדסה","englishname":"aldyar almqdsah","Description":"","count":1,"Relation":{"Type_Arabic":"-","Type_English":"-","Metropolitan":"-","District":"-","Province":"-"}}},{"_id":"60d3259d0e79895a579355a3","type":"Feature","geometry":{"type":"Point","coordinates":[2.2284216554126264,36.30459737721337]},"properties":{"placename":"مليانة","hebrewname":"מליאנה","englishname":"mlyanah","Description":"","count":4,"Relation":{"Type_Arabic":"مدينة","Type_English":"city","Metropolitan":"-","District":"حدود إفريقية","Province":"-"}}},{"_id":"60d3259d0e79895a579355de","type":"Feature","geometry":{"type":"Point","coordinates":[35.16845403830587,31.762156787151795]},"properties":{"placename":"فلسطين","hebrewname":"פלסטינ","englishname":"flsTyn","Description":"","count":6,"Relation":{"Type_Arabic":"أرض","Type_English":"land","Metropolitan":"الرملة","District":"-","Province":"الشام"}}},{"_id":"60d3259d0e79895a579355df","type":"Feature","geometry":{"type":"Point","coordinates":[34.86563,31.92923]},"properties":{"placename":"الرملة","hebrewname":"אלרמלה","englishname":"alrmlah","Description":"","count":3,"Relation":{"Type_Arabic":"رمل","Type_English":"sand (desert)","Metropolitan":"القطيف","District":"فلسطين","Province":"الشام"}}},{"_id":"60d3259d0e79895a57935608","type":"Feature","geometry":{"type":"Point","coordinates":[39.51698817,24.88866539]},"properties":{"placename":"المدينة المنورة","hebrewname":"אלמדינה אלמנורה","englishname":"almdynah almnorah","Description":"","count":1,"Relation":{"Type_Arabic":"-","Type_English":"-","Metropolitan":"-","District":"-","Province":"-"}}},{"_id":"60d3259d0e79895a57935616","type":"Feature","geometry":{"type":"Point","coordinates":[39.016494291802346,22.790717008002066]},"properties":{"placename":"رابغ","hebrewname":"ראבע","englishname":"rabg","Description":"","count":2,"Relation":{"Type_Arabic":"واد","Type_English":"valley","Metropolitan":"الأكناف","District":"-","Province":"-"}}},{"_id":"60d3259d0e79895a5793561a","type":"Feature","geometry":{"type":"Point","coordinates":[39.82171653681087,21.429889801275152]},"properties":{"placename":"قبيس","hebrewname":"קביס","englishname":"qbys","Description":"","count":7,"Relation":{"Type_Arabic":"جبل","Type_English":"mountain","Metropolitan":"-","District":"مكة","Province":"-"}}},{"_id":"60d3259d0e79895a57935624","type":"Feature","geometry":{"type":"Point","coordinates":[39.82563,21.42664]},"properties":{"placename":"عرفة","hebrewname":"ערפה","englishname":"arfah","Description":"","count":41,"Relation":{"Type_Arabic":"-","Type_English":"-","Metropolitan":"لية","District":"-","Province":"الشام"}}},{"_id":"60d3259d0e79895a57935628","type":"Feature","geometry":{"type":"Point","coordinates":[51.662297390909124,32.66163302743852]},"properties":{"placename":"إصفهان","hebrewname":"איצפהאנ","englishname":"ASfhan","Description":"","count":19,"Relation":{"Type_Arabic":"-","Type_English":"-","Metropolitan":"-","District":"-","Province":"-"}}},{"_id":"60d3259d0e79895a57935665","type":"Feature","geometry":{"type":"Point","coordinates":[37.01611,39.74833]},"properties":{"placename":"سيواس","hebrewname":"סיואס","englishname":"syoas","Description":"","count":2,"Relation":{"Type_Arabic":"-","Type_English":"-","Metropolitan":"-","District":"-","Province":"-"}}},{"_id":"60d3259d0e79895a57935689","type":"Feature","geometry":{"type":"Point","coordinates":[57.07879,30.28321]},"properties":{"placename":"كرمان","hebrewname":"כרמאנ","englishname":"krman","Description":"","count":10,"Relation":{"Type_Arabic":"ولاية","Type_English":"non-arab province","Metropolitan":"روذان","District":"أصبهان","Province":"فارس"}}},{"_id":"60d3259d0e79895a5793568c","type":"Feature","geometry":{"type":"Point","coordinates":[3.8977033587137044,36.90601490968684]},"properties":{"placename":"دلس","hebrewname":"דלס","englishname":"dls","Description":"","count":42,"Relation":{"Type_Arabic":"-","Type_English":"-","Metropolitan":"-","District":"-","Province":"-"}}},{"_id":"60d3259d0e79895a579356a3","type":"Feature","geometry":{"type":"Point","coordinates":[9.031083407745237,33.46291443047881]},"properties":{"placename":"دوز","hebrewname":"דוז","englishname":"doz","Description":"","count":11,"Relation":{"Type_Arabic":"-","Type_English":"-","Metropolitan":"-","District":"-","Province":"-"}}},{"_id":"60d3259d0e79895a579356b1","type":"Feature","geometry":{"type":"Point","coordinates":[88.71036738033989,31.276986958265176]},"properties":{"placename":"التبت","hebrewname":"אלתבת","englishname":"altbt","Description":"","count":2,"Relation":{"Type_Arabic":"-","Type_English":"-","Metropolitan":"-","District":"-","Province":"-"}}},{"_id":"60d3259d0e79895a579356c8","type":"Feature","geometry":{"type":"Point","coordinates":[-2.93352,35.16813]},"properties":{"placename":"الناظور","hebrewname":"אלנאזור","englishname":"alnaZor","Description":"","count":2,"Relation":{"Type_Arabic":"-","Type_English":"-","Metropolitan":"-","District":"-","Province":"-"}}},{"_id":"60d3259d0e79895a579356c9","type":"Feature","geometry":{"type":"Point","coordinates":[-4.8334164057094915,39.312012059307335]},"properties":{"placename":"بلاد الاندلس","hebrewname":"בלאד אלאנדלס","englishname":"blad alandls","Description":"","count":4,"Relation":{"Type_Arabic":"-","Type_English":"-","Metropolitan":"-","District":"-","Province":"-"}}},{"_id":"60d3259d0e79895a579356cd","type":"Feature","geometry":{"type":"Point","coordinates":[37.00472,35.59011]},"properties":{"placename":"سنجار ","hebrewname":"סנגאר ","englishname":"snjar ","Description":"","count":3,"Relation":{"Type_Arabic":"-","Type_English":"-","Metropolitan":"-","District":"-","Province":"-"}}},{"_id":"60d3259d0e79895a579356ea","type":"Feature","geometry":{"type":"Point","coordinates":[35.49442,33.88894]},"properties":{"placename":" بيروت","hebrewname":" בירות","englishname":" byrot","Description":"","count":6,"Relation":{"Type_Arabic":"-","Type_English":"-","Metropolitan":"-","District":"-","Province":"-"}}},{"_id":"60d3259d0e79895a57935715","type":"Feature","geometry":{"type":"Point","coordinates":[47.95207904963696,36.070781010965796]},"properties":{"placename":"شيرين","hebrewname":"שירינ","englishname":"shyryn","Description":"","count":30,"Relation":{"Type_Arabic":"قصر","Type_English":"palace","Metropolitan":"-","District":"-","Province":"-"}}},{"_id":"60d3259d0e79895a5793571a","type":"Feature","geometry":{"type":"Point","coordinates":[51.43997,35.59354]},"properties":{"placename":"الري","hebrewname":"אלרי","englishname":"alry","Description":"","count":60,"Relation":{"Type_Arabic":"مدينة","Type_English":"city","Metropolitan":"دنباوند","District":"بغداد","Province":"الري"}}},{"_id":"60d3259d0e79895a57935721","type":"Feature","geometry":{"type":"Point","coordinates":[43.4973,25.86944]},"properties":{"placename":"الرس","hebrewname":"אלרס","englishname":"alrs","Description":"","count":28,"Relation":{"Type_Arabic":"بئر","Type_English":"well","Metropolitan":"-","District":"-","Province":"-"}}},{"_id":"60d3259d0e79895a57935740","type":"Feature","geometry":{"type":"Point","coordinates":[34.41208,31.46587]},"properties":{"placename":"مدين","hebrewname":"מדינ","englishname":"mdyn","Description":"","count":20,"Relation":{"Type_Arabic":"قبيلة","Type_English":"tribe","Metropolitan":"-","District":"-","Province":"مصر"}}},{"_id":"60d3259d0e79895a57935750","type":"Feature","geometry":{"type":"Point","coordinates":[10.098345147807866,33.85143699260026]},"properties":{"placename":"زريق","hebrewname":"זריק","englishname":"zryq","Description":"","count":1,"Relation":{"Type_Arabic":"نهر","Type_English":"river","Metropolitan":"الجرجاني","District":"-","Province":"-"}}},{"_id":"60d3259d0e79895a57935756","type":"Feature","geometry":{"type":"Point","coordinates":[55.541789467725565,36.59432288088147]},"properties":{"placename":"جيلان","hebrewname":"גילאנ","englishname":"jylan","Description":"","count":3,"Relation":{"Type_Arabic":"بلاد","Type_English":"caliphate's country","Metropolitan":"-","District":"-","Province":"-"}}},{"_id":"60d3259d0e79895a57935767","type":"Feature","geometry":{"type":"Point","coordinates":[35.97603,36.08012]},"properties":{"placename":"سويدية","hebrewname":"סוידיה","englishname":"soydyah","Description":"","count":1,"Relation":{"Type_Arabic":"-","Type_English":"-","Metropolitan":"-","District":"-","Province":"-"}}},{"_id":"60d3259d0e79895a5793576f","type":"Feature","geometry":{"type":"Point","coordinates":[35.4657,30.25125]},"properties":{"placename":"الطيبة","hebrewname":"אלטיבה","englishname":"alTybah","Description":"","count":6,"Relation":{"Type_Arabic":"قريتان","Type_English":"neighboring villages","Metropolitan":"-","District":"الصعيد","Province":"-"}}},{"_id":"60d3259d0e79895a5793555d","type":"Feature","geometry":{"type":"Point","coordinates":[-5.161592567458838,36.7466172428775]},"properties":{"placename":"رندة","hebrewname":"רנדה","englishname":"rndah","Description":"","count":7,"Relation":{"Type_Arabic":"مدينة","Type_English":"city","Metropolitan":"-","District":"-","Province":"-"}}},{"_id":"60d3259d0e79895a57935562","type":"Feature","geometry":{"type":"Point","coordinates":[29.79201656,30.83564421]},"properties":{"placename":"الاسكندرية","hebrewname":"אלאסכנדריה","englishname":"alaskndryah","Description":"","count":22,"Relation":{"Type_Arabic":"-","Type_English":"-","Metropolitan":"-","District":"-","Province":"-"}}},{"_id":"60d3259d0e79895a57935564","type":"Feature","geometry":{"type":"Point","coordinates":[47.39757414,30.39626912]},"properties":{"placename":"البصرة","hebrewname":"אלבצרה","englishname":"albSrah","Description":"","count":52,"Relation":{"Type_Arabic":"مدينة","Type_English":"city","Metropolitan":"رميلة","District":"دجلة","Province":"البصرة"}}},{"_id":"60d3259d0e79895a57935573","type":"Feature","geometry":{"type":"Point","coordinates":[29.91367753919627,31.20876695069141]},"properties":{"placename":"الإسكندرية","hebrewname":"אלאיסכנדריה","englishname":"alAskndryah","Description":"","count":13,"Relation":{"Type_Arabic":"مدينة","Type_English":"city","Metropolitan":"سير","District":"بابل","Province":"الصين"}}},{"_id":"60d3259d0e79895a57935589","type":"Feature","geometry":{"type":"Point","coordinates":[31.262656932063802,30.04588472088679]},"properties":{"placename":"الأزهر","hebrewname":"אלאזהר","englishname":"alAzhr","Description":"","count":10,"Relation":{"Type_Arabic":"عين","Type_English":"spring","Metropolitan":"-","District":"اليمامة","Province":"-"}}},{"_id":"60d3259d0e79895a5793558f","type":"Feature","geometry":{"type":"Point","coordinates":[34.57409483003408,31.66757416573755]},"properties":{"placename":"عسقلان","hebrewname":"עסקלאנ","englishname":"asqlan","Description":"","count":10,"Relation":{"Type_Arabic":"مدينة","Type_English":"city","Metropolitan":"عكا","District":"فلسطين","Province":"الشام"}}},{"_id":"60d3259d0e79895a57935593","type":"Feature","geometry":{"type":"Point","coordinates":[43.78015956,33.02990519]},"properties":{"placename":"العراق","hebrewname":"אלעראק","englishname":"alaraq","Description":"","count":172,"Relation":{"Type_Arabic":"ماء","Type_English":"water","Metropolitan":"القف","District":"الحجاز","Province":"المغرب"}}},{"_id":"60d3259d0e79895a57935597","type":"Feature","geometry":{"type":"Point","coordinates":[78.12419421518524,9.93101881136194]},"properties":{"placename":"مترة","hebrewname":"מתרה","englishname":"mtrah","Description":"","count":6,"Relation":{"Type_Arabic":"-","Type_English":"-","Metropolitan":"-","District":"-","Province":"-"}}},{"_id":"60d3259d0e79895a57935598","type":"Feature","geometry":{"type":"Point","coordinates":[75.82598554621498,11.495881036351332]},"properties":{"placename":"قالقوط","hebrewname":"קאלקוט","englishname":"qalqoT","Description":"","count":21,"Relation":{"Type_Arabic":"-","Type_English":"-","Metropolitan":"-","District":"-","Province":"-"}}},{"_id":"60d3259d0e79895a579355a9","type":"Feature","geometry":{"type":"Point","coordinates":[49.17416077182405,30.142416241246927]},"properties":{"placename":"بونة","hebrewname":"בונה","englishname":"bonah","Description":"","count":7,"Relation":{"Type_Arabic":"وادي","Type_English":"valley","Metropolitan":"-","District":"-","Province":"-"}}},{"_id":"60d3259d0e79895a579355ab","type":"Feature","geometry":{"type":"Point","coordinates":[10.80706760538061,36.80119535596772]},"properties":{"placename":"سوسة","hebrewname":"סוסה","englishname":"sosah","Description":"","count":1,"Relation":{"Type_Arabic":"مدينة","Type_English":"city","Metropolitan":"البحر المحيط","District":"صقلية","Province":"المغرب"}}},{"_id":"60d3259d0e79895a579355b3","type":"Feature","geometry":{"type":"Point","coordinates":[39.59420038883722,24.514747765371105]},"properties":{"placename":"المدينة","hebrewname":"אלמדינה","englishname":"almdynah","Description":"","count":463,"Relation":{"Type_Arabic":"-","Type_English":"-","Metropolitan":"-","District":"-","Province":"-"}}},{"_id":"60d3259d0e79895a579355b6","type":"Feature","geometry":{"type":"Point","coordinates":[29.914007207487497,31.256202484408053]},"properties":{"placename":"إسكندرية","hebrewname":"איסכנדריה","englishname":"Askndryah","Description":"","count":14,"Relation":{"Type_Arabic":"-","Type_English":"-","Metropolitan":"-","District":"-","Province":"-"}}},{"_id":"60d3259d0e79895a579355b8","type":"Feature","geometry":{"type":"Point","coordinates":[30.863893624164508,30.835304675884966]},"properties":{"placename":"أبيار","hebrewname":"אביאר","englishname":"Abyar","Description":"","count":4,"Relation":{"Type_Arabic":"قرية","Type_English":"village","Metropolitan":"جزيرة بني نصر","District":"-","Province":"-"}}},{"_id":"60d3259d0e79895a579355e1","type":"Feature","geometry":{"type":"Point","coordinates":[35.75279,32.33326]},"properties":{"placename":"عجلون","hebrewname":"עגלונ","englishname":"ajlon","Description":"","count":4,"Relation":{"Type_Arabic":"-","Type_English":"-","Metropolitan":"-","District":"-","Province":"-"}}},{"_id":"60d3259d0e79895a579355ee","type":"Feature","geometry":{"type":"Point","coordinates":[49.12214,55.78874]},"properties":{"placename":"قازان","hebrewname":"קאזאנ","englishname":"qazan","Description":"","count":8,"Relation":{"Type_Arabic":"-","Type_English":"-","Metropolitan":"-","District":"-","Province":"-"}}},{"_id":"60d3259d0e79895a579355f4","type":"Feature","geometry":{"type":"Point","coordinates":[35.21633,31.76904]},"properties":{"placename":"صهيون","hebrewname":"צהיונ","englishname":"Shyon","Description":"","count":3,"Relation":{"Type_Arabic":"قلعة","Type_English":"castle","Metropolitan":"نقر","District":"حمص","Province":"-"}}},{"_id":"60d3259d0e79895a57935619","type":"Feature","geometry":{"type":"Point","coordinates":[50.11396,26.28864]},"properties":{"placename":"الظهران","hebrewname":"אלזהראנ","englishname":"alZhran","Description":"","count":1,"Relation":{"Type_Arabic":"قرية","Type_English":"village","Metropolitan":"الفوارة","District":"حلب","Province":"-"}}},{"_id":"60d3259d0e79895a57935627","type":"Feature","geometry":{"type":"Point","coordinates":[45.0650451,31.87305046]},"properties":{"placename":"القادسية","hebrewname":"אלקאדסיה","englishname":"alqadsyah","Description":"","count":4,"Relation":{"Type_Arabic":"موضع","Type_English":"place","Metropolitan":"القادسية","District":"جرى","Province":"-"}}},{"_id":"60d3259d0e79895a5793562d","type":"Feature","geometry":{"type":"Point","coordinates":[51.44381938113208,35.62154627511646]},"properties":{"placename":"دولة أباد","hebrewname":"דולה אבאד","englishname":"dolah Abad","Description":"","count":11,"Relation":{"Type_Arabic":"-","Type_English":"-","Metropolitan":"-","District":"-","Province":"-"}}},{"_id":"60d3259d0e79895a5793562f","type":"Feature","geometry":{"type":"Point","coordinates":[50.8764,34.6401]},"properties":{"placename":"قم","hebrewname":"קמ","englishname":"qm","Description":"","count":288,"Relation":{"Type_Arabic":"مدينة","Type_English":"city","Metropolitan":"-","District":"-","Province":"-"}}},{"_id":"60d3259d0e79895a57935638","type":"Feature","geometry":{"type":"Point","coordinates":[43.82535799,32.506219]},"properties":{"placename":"كربلاء","hebrewname":"כרבלאא","englishname":"krblaa","Description":"","count":3,"Relation":{"Type_Arabic":"موضع","Type_English":"place","Metropolitan":"زرق","District":"-","Province":"-"}}},{"_id":"60d3259d0e79895a5793563e","type":"Feature","geometry":{"type":"Point","coordinates":[43.67861,34.61581]},"properties":{"placename":"تكريت","hebrewname":"תכרית","englishname":"tkryt","Description":"","count":2,"Relation":{"Type_Arabic":"بلد","Type_English":"town","Metropolitan":"الخرج","District":"الزاب","Province":"-"}}},{"_id":"60d3259d0e79895a57935645","type":"Feature","geometry":{"type":"Point","coordinates":[37.32984715465456,19.105931881681027]},"properties":{"placename":"سواكن","hebrewname":"סואכנ","englishname":"soakn","Description":"","count":6,"Relation":{"Type_Arabic":"بلد","Type_English":"town","Metropolitan":"بحر جار","District":"-","Province":"-"}}},{"_id":"60d3259d0e79895a5793564e","type":"Feature","geometry":{"type":"Point","coordinates":[45.03862,12.77522]},"properties":{"placename":"صيرة","hebrewname":"צירה","englishname":"Syrah","Description":"","count":6,"Relation":{"Type_Arabic":"موضع","Type_English":"place","Metropolitan":"-","District":"-","Province":"-"}}},{"_id":"60d3259d0e79895a57935676","type":"Feature","geometry":{"type":"Point","coordinates":[75.99966303886215,36.00167889504686]},"properties":{"placename":"قراقرم","hebrewname":"קראקרמ","englishname":"qraqrm","Description":"","count":4,"Relation":{"Type_Arabic":"-","Type_English":"-","Metropolitan":"-","District":"-","Province":"-"}}},{"_id":"60d3259d0e79895a5793567c","type":"Feature","geometry":{"type":"Point","coordinates":[52.339510265670334,27.821039427312368]},"properties":{"placename":"الجام","hebrewname":"אלגאמ","englishname":"aljam","Description":"","count":90,"Relation":{"Type_Arabic":"-","Type_English":"-","Metropolitan":"-","District":"-","Province":"-"}}},{"_id":"60d3259d0e79895a579356a0","type":"Feature","geometry":{"type":"Point","coordinates":[47.92751309508061,34.73459361538453]},"properties":{"placename":"أجين","hebrewname":"אגינ","englishname":"Ajyn","Description":"","count":2,"Relation":{"Type_Arabic":"-","Type_English":"-","Metropolitan":"-","District":"-","Province":"-"}}},{"_id":"60d3259d0e79895a579356b6","type":"Feature","geometry":{"type":"Point","coordinates":[113.27449417226036,23.074823026120892]},"properties":{"placename":"صين كلان","hebrewname":"צינ כלאנ","englishname":"Syn klan","Description":"","count":4,"Relation":{"Type_Arabic":"-","Type_English":"-","Metropolitan":"-","District":"-","Province":"-"}}},{"_id":"60d3259d0e79895a579356ce","type":"Feature","geometry":{"type":"Point","coordinates":[37.37402,35.26375]},"properties":{"placename":"السن ","hebrewname":"אלסנ ","englishname":"alsn ","Description":"","count":9,"Relation":{"Type_Arabic":"-","Type_English":"-","Metropolitan":"-","District":"-","Province":"-"}}},{"_id":"60d3259d0e79895a579356e8","type":"Feature","geometry":{"type":"Point","coordinates":[35.53124,32.79221]},"properties":{"placename":" طبرية","hebrewname":" טבריה","englishname":" Tbryah","Description":"","count":1,"Relation":{"Type_Arabic":"-","Type_English":"-","Metropolitan":"-","District":"-","Province":"-"}}},{"_id":"60d3259d0e79895a579356f2","type":"Feature","geometry":{"type":"Point","coordinates":[37.003614,35.989704]},"properties":{"placename":" قنسرين","hebrewname":" קנסרינ","englishname":" qnsryn","Description":"","count":2,"Relation":{"Type_Arabic":"-","Type_English":"-","Metropolitan":"-","District":"-","Province":"-"}}},{"_id":"60d3259d0e79895a579356f7","type":"Feature","geometry":{"type":"Point","coordinates":[56.05285212,20.55560458]},"properties":{"placename":" عمان","hebrewname":" עמאנ","englishname":" aman","Description":"","count":18,"Relation":{"Type_Arabic":"-","Type_English":"-","Metropolitan":"-","District":"-","Province":"-"}}},{"_id":"60d3259d0e79895a579356f9","type":"Feature","geometry":{"type":"Point","coordinates":[34.893068,31.950908]},"properties":{"placename":" لد","hebrewname":" לד","englishname":" ld","Description":"","count":81,"Relation":{"Type_Arabic":"-","Type_English":"-","Metropolitan":"-","District":"-","Province":"-"}}},{"_id":"60d3259d0e79895a57935723","type":"Feature","geometry":{"type":"Point","coordinates":[48.33485122409211,38.2539842440035]},"properties":{"placename":"بست","hebrewname":"בסת","englishname":"bst","Description":"","count":89,"Relation":{"Type_Arabic":"واد","Type_English":"valley","Metropolitan":"-","District":"نيسابور","Province":"أذربيجان"}}},{"_id":"60d3259d0e79895a5793573b","type":"Feature","geometry":{"type":"Point","coordinates":[35.206754580546026,32.86895927549804]},"properties":{"placename":"كابل","hebrewname":"כאבל","englishname":"kabl","Description":"","count":2,"Relation":{"Type_Arabic":"أرض","Type_English":"land","Metropolitan":"خواش","District":"الشرقية","Province":"طخارستان"}}},{"_id":"60d3259d0e79895a5793573f","type":"Feature","geometry":{"type":"Point","coordinates":[47.59909891,15.90146141]},"properties":{"placename":"اليمنية","hebrewname":"אלימניה","englishname":"alymnyah","Description":"","count":1,"Relation":{"Type_Arabic":"-","Type_English":"-","Metropolitan":"-","District":"-","Province":"-"}}},{"_id":"60d3259d0e79895a57935758","type":"Feature","geometry":{"type":"Point","coordinates":[31.254278,29.849667]},"properties":{"placename":"منف","hebrewname":"מנפ","englishname":"mnf","Description":"","count":31,"Relation":{"Type_Arabic":"مدينة","Type_English":"city","Metropolitan":"سكن","District":"الباب","Province":"مصر"}}},{"_id":"60d3259d0e79895a5793552a","type":"Feature","geometry":{"type":"Point","coordinates":[-6.301363963,31.8809251]},"properties":{"placename":"المغرب","hebrewname":"אלמערב","englishname":"almgrb","Description":"","count":260,"Relation":{"Type_Arabic":"بلاد","Type_English":"caliphate's country","Metropolitan":"شك","District":"الزاب","Province":"المغرب"}}},{"_id":"60d3259d0e79895a57935532","type":"Feature","geometry":{"type":"Point","coordinates":[96.52116453,21.13631058]},"properties":{"placename":"بورما","hebrewname":"בורמא","englishname":"borma","Description":"","count":2,"Relation":{"Type_Arabic":"-","Type_English":"-","Metropolitan":"-","District":"-","Province":"-"}}},{"_id":"60d3259d0e79895a57935542","type":"Feature","geometry":{"type":"Point","coordinates":[8.91519,44.4264]},"properties":{"placename":"جنوة","hebrewname":"גנוה","englishname":"jnoah","Description":"","count":5,"Relation":{"Type_Arabic":"-","Type_English":"-","Metropolitan":"-","District":"-","Province":"-"}}},{"_id":"60d3259d0e79895a57935557","type":"Feature","geometry":{"type":"Point","coordinates":[-5.053584419124959,34.030771855264504]},"properties":{"placename":"دولة بني مرين","hebrewname":"דאולאת בני מרינ","englishname":"dawlat bny mryn","Description":"","count":1,"Relation":{"Type_Arabic":"-","Type_English":"-","Metropolitan":"-","District":"-","Province":"-"}}},{"_id":"60d3259d0e79895a57935563","type":"Feature","geometry":{"type":"Point","coordinates":[36.48256,32.52013]},"properties":{"placename":"الشام","hebrewname":"אלשאמ","englishname":"alsham","Description":"","count":113,"Relation":{"Type_Arabic":"موضع","Type_English":"place","Metropolitan":"الفراديس","District":"دمشق","Province":"اليمن"}}},{"_id":"60d3259d0e79895a57935568","type":"Feature","geometry":{"type":"Point","coordinates":[-4.288322070722005,31.27651737319927]},"properties":{"placename":"سجلماسة","hebrewname":"סגלמאסה","englishname":"sjlmasah","Description":"","count":15,"Relation":{"Type_Arabic":"مدينة","Type_English":"city","Metropolitan":"ناس","District":"-","Province":"المغرب"}}},{"_id":"60d3259d0e79895a57935572","type":"Feature","geometry":{"type":"Point","coordinates":[21.94788316518503,32.523554096583]},"properties":{"placename":"النوبة","hebrewname":"אלנובה","englishname":"alnobah","Description":"","count":13,"Relation":{"Type_Arabic":"-","Type_English":"-","Metropolitan":"-","District":"-","Province":"-"}}},{"_id":"60d3259d0e79895a57935575","type":"Feature","geometry":{"type":"Point","coordinates":[58.493807279537904,23.629411061597843]},"properties":{"placename":"القرم","hebrewname":"אלקרמ","englishname":"alqrm","Description":"","count":13,"Relation":{"Type_Arabic":"-","Type_English":"-","Metropolitan":"-","District":"-","Province":"-"}}},{"_id":"60d3259d0e79895a5793557e","type":"Feature","geometry":{"type":"Point","coordinates":[32.61734363,38.04841359]},"properties":{"placename":"قونية","hebrewname":"קוניה","englishname":"qonyah","Description":"","count":6,"Relation":{"Type_Arabic":"موضع","Type_English":"place","Metropolitan":"-","District":"-","Province":"-"}}},{"_id":"60d3259d0e79895a579355a6","type":"Feature","geometry":{"type":"Point","coordinates":[36.39734,34.67337]},"properties":{"placename":"حديدة","hebrewname":"חדידה","englishname":"Hdydah","Description":"","count":9,"Relation":{"Type_Arabic":"-","Type_English":"-","Metropolitan":"-","District":"-","Province":"-"}}},{"_id":"60d3259d0e79895a579355b1","type":"Feature","geometry":{"type":"Point","coordinates":[31.1669,30.97063]},"properties":{"placename":"المحلة الكبرى","hebrewname":"אלמחלה אלכברא","englishname":"almHlah alkbra","Description":"","count":3,"Relation":{"Type_Arabic":"-","Type_English":"-","Metropolitan":"-","District":"-","Province":"-"}}},{"_id":"60d3259d0e79895a579355c5","type":"Feature","geometry":{"type":"Point","coordinates":[32.28815767,13.44291963]},"properties":{"placename":"النيل","hebrewname":"אלניל","englishname":"alnyl","Description":"","count":44,"Relation":{"Type_Arabic":"بليدة","Type_English":"small town","Metropolitan":"المقام","District":"الصعيد","Province":"مصر"}}},{"_id":"60d3259d0e79895a579355d0","type":"Feature","geometry":{"type":"Point","coordinates":[60.36389,41.37833]},"properties":{"placename":"خوارزم","hebrewname":"חוארזמ","englishname":"xoarzm","Description":"","count":38,"Relation":{"Type_Arabic":"ناحية","Type_English":"district","Metropolitan":"الجرجانية","District":"جرى","Province":"خراسان"}}},{"_id":"60d3259d0e79895a579355d5","type":"Feature","geometry":{"type":"Point","coordinates":[31.56223,30.42039]},"properties":{"placename":"بلبيس","hebrewname":"בלביס","englishname":"blbys","Description":"","count":3,"Relation":{"Type_Arabic":"-","Type_English":"-","Metropolitan":"المقدس","District":"-","Province":"مصر"}}},{"_id":"60d3259d0e79895a579355e9","type":"Feature","geometry":{"type":"Point","coordinates":[37.15662939,35.22523197]},"properties":{"placename":"حماة","hebrewname":"חמאה","englishname":"Hmaah","Description":"","count":13,"Relation":{"Type_Arabic":"لغة","Type_English":"language","Metropolitan":"-","District":"-","Province":"-"}}},{"_id":"60d3259d0e79895a579355f8","type":"Feature","geometry":{"type":"Point","coordinates":[48.51456,34.79922]},"properties":{"placename":"همدان","hebrewname":"המדאנ","englishname":"hmdan","Description":"","count":3,"Relation":{"Type_Arabic":"-","Type_English":"-","Metropolitan":"تميم","District":"-","Province":"اليمن"}}},{"_id":"60d3259d0e79895a57935602","type":"Feature","geometry":{"type":"Point","coordinates":[36.71802504855483,35.869501877067925]},"properties":{"placename":"النيرب","hebrewname":"אלנירב","englishname":"alnyrb","Description":"","count":2,"Relation":{"Type_Arabic":"-","Type_English":"-","Metropolitan":"-","District":"-","Province":"-"}}},{"_id":"60d3259d0e79895a5793560e","type":"Feature","geometry":{"type":"Point","coordinates":[37.32396,34.83444]},"properties":{"placename":"جب","hebrewname":"גב","englishname":"jb","Description":"","count":653,"Relation":{"Type_Arabic":"-","Type_English":"-","Metropolitan":"-","District":"-","Province":"-"}}},{"_id":"60d3259d0e79895a57935617","type":"Feature","geometry":{"type":"Point","coordinates":[57.437706040079114,23.839296441750125]},"properties":{"placename":"السويق","hebrewname":"אלסויק","englishname":"alsoyq","Description":"","count":2,"Relation":{"Type_Arabic":"-","Type_English":"-","Metropolitan":"-","District":"-","Province":"-"}}},{"_id":"60d3259d0e79895a57935625","type":"Feature","geometry":{"type":"Point","coordinates":[44.78699,14.27179]},"properties":{"placename":"العقبة","hebrewname":"אלעקבה","englishname":"alaqbah","Description":"","count":4,"Relation":{"Type_Arabic":"-","Type_English":"-","Metropolitan":"-","District":"-","Province":"-"}}},{"_id":"60d3259d0e79895a57935646","type":"Feature","geometry":{"type":"Point","coordinates":[43.32222459451262,14.200654309491771]},"properties":{"placename":"زبيد","hebrewname":"זביד","englishname":"zbyd","Description":"","count":20,"Relation":{"Type_Arabic":"واد","Type_English":"valley","Metropolitan":"جبل وصاب","District":"تهامة","Province":"اليمن"}}},{"_id":"60d3259d0e79895a57935649","type":"Feature","geometry":{"type":"Point","coordinates":[31.48020202770042,27.01227167475513]},"properties":{"placename":"جهينة","hebrewname":"גהינה","englishname":"jhynah","Description":"","count":2,"Relation":{"Type_Arabic":"قبيلة","Type_English":"tribe","Metropolitan":"حرة النار","District":"الموصل","Province":"-"}}},{"_id":"60d3259d0e79895a5793566e","type":"Feature","geometry":{"type":"Point","coordinates":[39.1843,51.67204]},"properties":{"placename":"الروس","hebrewname":"אלרוס","englishname":"alros","Description":"","count":9,"Relation":{"Type_Arabic":"-","Type_English":"-","Metropolitan":"-","District":"-","Province":"-"}}},{"_id":"60d3259d0e79895a5793567d","type":"Feature","geometry":{"type":"Point","coordinates":[67.41315,32.52154]},"properties":{"placename":"شاه","hebrewname":"שאה","englishname":"shah","Description":"","count":207,"Relation":{"Type_Arabic":"-","Type_English":"-","Metropolitan":"-","District":"-","Province":"-"}}},{"_id":"60d3259d0e79895a5793567f","type":"Feature","geometry":{"type":"Point","coordinates":[59.4671701765092,35.27745352087952]},"properties":{"placename":"زاوة","hebrewname":"זאוה","englishname":"zaoah","Description":"","count":1,"Relation":{"Type_Arabic":"-","Type_English":"-","Metropolitan":"-","District":"-","Province":"-"}}},{"_id":"60d3259d0e79895a57935682","type":"Feature","geometry":{"type":"Point","coordinates":[71.50211438241602,30.163966922640277]},"properties":{"placename":"ملتان","hebrewname":"מלתאנ","englishname":"mltan","Description":"","count":42,"Relation":{"Type_Arabic":"مدينة","Type_English":"city","Metropolitan":"كبر","District":"حد سمندور","Province":"هند"}}},{"_id":"60d3259d0e79895a5793568e","type":"Feature","geometry":{"type":"Point","coordinates":[31.73183664,30.66673531]},"properties":{"placename":"الشرقية","hebrewname":"אלשרקיה","englishname":"alshrqyah","Description":"","count":18,"Relation":{"Type_Arabic":"محلة","Type_English":"suburb","Metropolitan":"الحبابية","District":"بغداد","Province":"مصر"}}},{"_id":"60d3259d0e79895a57935693","type":"Feature","geometry":{"type":"Point","coordinates":[52.58425700330207,29.40963749411695]},"properties":{"placename":"ظفر آباد","hebrewname":"זפר אבאד","englishname":"Zfr aabad","Description":"","count":1,"Relation":{"Type_Arabic":"-","Type_English":"-","Metropolitan":"-","District":"-","Province":"-"}}},{"_id":"60d3259d0e79895a5793569e","type":"Feature","geometry":{"type":"Point","coordinates":[50.07714015759092,26.58734531321633]},"properties":{"placename":"دارين","hebrewname":"דארינ","englishname":"daryn","Description":"","count":2,"Relation":{"Type_Arabic":"ما","Type_English":"water","Metropolitan":"مزن","District":"البحرين","Province":"هند"}}},{"_id":"60d3259d0e79895a579356c0","type":"Feature","geometry":{"type":"Point","coordinates":[0.8849395590598477,36.12481964833924]},"properties":{"placename":"مازونة","hebrewname":"מאזונה","englishname":"mazonah","Description":"","count":1,"Relation":{"Type_Arabic":"-","Type_English":"-","Metropolitan":"-","District":"-","Province":"-"}}},{"_id":"60d3259d0e79895a579356cf","type":"Feature","geometry":{"type":"Point","coordinates":[42.47463029,36.02265052]},"properties":{"placename":"الموصل ","hebrewname":"אלמוצל ","englishname":"almoSl ","Description":"","count":8,"Relation":{"Type_Arabic":"-","Type_English":"-","Metropolitan":"-","District":"-","Province":"-"}}},{"_id":"60d3259d0e79895a579356e1","type":"Feature","geometry":{"type":"Point","coordinates":[-9.639087346632493,30.00402746138295]},